timestamp,date,latitude,longitude
1649787083,"2022-04-12 18:11:23",47.287236,-122.515536
1649787616,"2022-04-12 18:20:16",47.287228,-122.515134
1649787646,"2022-04-12 18:20:46",47.287237,-122.514721
1649787676,"2022-04-12 18:21:16",47.28723,-122.514317
1649787706,"2022-04-12 18:21:46",47.287227,-122.51392
1649787733,"2022-04-12 18:22:13",47.287197,-122.513524
1649787760,"2022-04-12 18:22:40",47.287192,-122.513118
1649787790,"2022-04-12 18:23:10",47.287186,-122.512718
1649787823,"2022-04-12 18:23:43",47.287212,-122.51231
1649787849,"2022-04-12 18:24:09",47.287207,-122.511908
1649787877,"2022-04-12 18:24:37",47.287203,-122.51151
1649787917,"2022-04-12 18:25:17",47.287211,-122.511103
1649787947,"2022-04-12 18:25:47",47.287192,-122.510703
1649788018,"2022-04-12 18:26:58",47.287195,-122.510289
1649788046,"2022-04-12 18:27:26",47.287204,-122.509885
1649788093,"2022-04-12 18:28:13",47.287188,-122.509483
1649788120,"2022-04-12 18:28:40",47.287176,-122.509081
1649788166,"2022-04-12 18:29:26",47.28717,-122.508675
1649788234,"2022-04-12 18:30:34",47.287148,-122.508278
1649788265,"2022-04-12 18:31:05",47.287134,-122.507873
1649788291,"2022-04-12 18:31:31",47.287152,-122.507461
1649788354,"2022-04-12 18:32:34",47.287145,-122.507058
1649788393,"2022-04-12 18:33:13",47.287133,-122.506658
1649788438,"2022-04-12 18:33:58",47.287142,-122.506258
1649788499,"2022-04-12 18:34:59",47.287152,-122.505851
1649788529,"2022-04-12 18:35:29",47.287137,-122.505444
1649788574,"2022-04-12 18:36:14",47.28715,-122.504984
1649788611,"2022-04-12 18:36:51",47.287144,-122.504585
1649788643,"2022-04-12 18:37:23",47.287167,-122.50418
1649788680,"2022-04-12 18:38:00",47.287159,-122.50377
1649788710,"2022-04-12 18:38:30",47.287148,-122.503366
1649788760,"2022-04-12 18:39:20",47.287153,-122.502961
1649788801,"2022-04-12 18:40:01",47.287147,-122.50256
1649788830,"2022-04-12 18:40:30",47.287152,-122.502157
1649788863,"2022-04-12 18:41:03",47.287144,-122.501755
1649788890,"2022-04-12 18:41:30",47.287161,-122.501355
1649788918,"2022-04-12 18:41:58",47.287158,-122.500955
1649788949,"2022-04-12 18:42:29",47.287158,-122.500556
1649788977,"2022-04-12 18:42:57",47.287146,-122.500146
1649789011,"2022-04-12 18:43:31",47.287115,-122.499752
1649789046,"2022-04-12 18:44:06",47.287101,-122.499349
1649789075,"2022-04-12 18:44:35",47.287095,-122.498947
1649789116,"2022-04-12 18:45:16",47.287094,-122.498542
1649789147,"2022-04-12 18:45:47",47.287094,-122.498138
1649789176,"2022-04-12 18:46:16",47.287092,-122.497738
1649789209,"2022-04-12 18:46:49",47.287091,-122.497336
1649789247,"2022-04-12 18:47:27",47.287092,-122.496933
1649789276,"2022-04-12 18:47:56",47.287085,-122.496524
1649789312,"2022-04-12 18:48:32",47.287096,-122.49612
1649789350,"2022-04-12 18:49:10",47.287081,-122.495718
1649789382,"2022-04-12 18:49:42",47.287086,-122.495315
1649789432,"2022-04-12 18:50:32",47.287082,-122.49491
1649789488,"2022-04-12 18:51:28",47.286832,-122.494735
1649789557,"2022-04-12 18:52:37",47.286555,-122.494721
1649789584,"2022-04-12 18:53:04",47.286276,-122.494719
1649789614,"2022-04-12 18:53:34",47.286006,-122.49473
1649789663,"2022-04-12 18:54:23",47.285732,-122.494754
1649789691,"2022-04-12 18:54:51",47.28547,-122.494853
1649789722,"2022-04-12 18:55:22",47.285181,-122.495057
1649789780,"2022-04-12 18:56:20",47.284961,-122.495292
1649789810,"2022-04-12 18:56:50",47.284712,-122.49548
1649789847,"2022-04-12 18:57:27",47.284692,-122.49588
1649789890,"2022-04-12 18:58:10",47.284462,-122.496091
1649789921,"2022-04-12 18:58:41",47.284185,-122.496089
1649789975,"2022-04-12 18:59:35",47.283917,-122.496179
1649790014,"2022-04-12 19:00:14",47.283683,-122.49638
1649790044,"2022-04-12 19:00:44",47.283458,-122.4966
1649790078,"2022-04-12 19:01:18",47.283192,-122.496678
1649790110,"2022-04-12 19:01:50",47.282922,-122.496628
1649790141,"2022-04-12 19:02:21",47.282671,-122.496458
1649790183,"2022-04-12 19:03:03",47.282438,-122.496244
1649790220,"2022-04-12 19:03:40",47.28216,-122.496198
1649790257,"2022-04-12 19:04:17",47.281886,-122.496235
1649790288,"2022-04-12 19:04:48",47.28161,-122.496195
1649790318,"2022-04-12 19:05:18",47.28134,-122.496203
1649790362,"2022-04-12 19:06:02",47.281063,-122.496178
1649790399,"2022-04-12 19:06:39",47.280786,-122.49619
1649790433,"2022-04-12 19:07:13",47.280511,-122.49623
1649790466,"2022-04-12 19:07:46",47.280237,-122.496234
1649790502,"2022-04-12 19:08:22",47.279959,-122.496234
1649790533,"2022-04-12 19:08:53",47.279684,-122.496229
1649790580,"2022-04-12 19:09:40",47.279414,-122.496252
1649790631,"2022-04-12 19:10:31",47.279137,-122.496238
1649790662,"2022-04-12 19:11:02",47.278865,-122.496214
1649790693,"2022-04-12 19:11:33",47.27859,-122.496266
1649790724,"2022-04-12 19:12:04",47.278315,-122.49624
1649790754,"2022-04-12 19:12:34",47.278044,-122.496248
1649790786,"2022-04-12 19:13:06",47.277774,-122.496264
1649790820,"2022-04-12 19:13:40",47.277496,-122.496264
1649790850,"2022-04-12 19:14:10",47.27722,-122.49626
1649790881,"2022-04-12 19:14:41",47.276944,-122.496256
1649790918,"2022-04-12 19:15:18",47.276669,-122.496279
1649790951,"2022-04-12 19:15:51",47.276393,-122.496281
1649790982,"2022-04-12 19:16:22",47.276122,-122.496292
1649791014,"2022-04-12 19:16:54",47.275851,-122.496288
1649791044,"2022-04-12 19:17:24",47.275571,-122.496302
1649791075,"2022-04-12 19:17:55",47.275299,-122.496287
1649791109,"2022-04-12 19:18:29",47.275026,-122.49627
1649791151,"2022-04-12 19:19:11",47.274991,-122.495868
1649791190,"2022-04-12 19:19:50",47.275002,-122.495295
1649791228,"2022-04-12 19:20:28",47.274991,-122.494896
1649791261,"2022-04-12 19:21:01",47.274981,-122.494492
1649791294,"2022-04-12 19:21:34",47.274984,-122.49409
1649791323,"2022-04-12 19:22:03",47.274975,-122.493681
1649791357,"2022-04-12 19:22:37",47.274972,-122.493279
1649791391,"2022-04-12 19:23:11",47.274961,-122.492871
1649791425,"2022-04-12 19:23:45",47.274955,-122.492469
1649791459,"2022-04-12 19:24:19",47.274965,-122.492061
1649791491,"2022-04-12 19:24:51",47.27496,-122.491663
1649791517,"2022-04-12 19:25:17",47.274966,-122.491267
1649791546,"2022-04-12 19:25:46",47.27496,-122.490866
1649791577,"2022-04-12 19:26:17",47.27496,-122.490461
1649791609,"2022-04-12 19:26:49",47.274946,-122.490063
1649791639,"2022-04-12 19:27:19",47.274963,-122.489655
1649791672,"2022-04-12 19:27:52",47.274961,-122.489247
1649791733,"2022-04-12 19:28:53",47.274939,-122.488835
1649791763,"2022-04-12 19:29:23",47.274945,-122.488426
1649791793,"2022-04-12 19:29:53",47.274951,-122.488019
1649791825,"2022-04-12 19:30:25",47.274958,-122.487615
1649791856,"2022-04-12 19:30:56",47.274964,-122.487212
1649791886,"2022-04-12 19:31:26",47.274941,-122.486811
1649791918,"2022-04-12 19:31:58",47.274938,-122.486412
1649791950,"2022-04-12 19:32:30",47.274921,-122.486009
1649791983,"2022-04-12 19:33:03",47.2749,-122.485601
1649792010,"2022-04-12 19:33:30",47.274898,-122.485202
1649792041,"2022-04-12 19:34:01",47.27488,-122.484803
1649792160,"2022-04-12 19:36:00",47.27489,-122.484399
1649792202,"2022-04-12 19:36:42",47.274822,-122.48401
1649792230,"2022-04-12 19:37:10",47.274793,-122.483601
1649792257,"2022-04-12 19:37:37",47.274786,-122.483196
1649792287,"2022-04-12 19:38:07",47.27478,-122.482788
1649792315,"2022-04-12 19:38:35",47.274784,-122.482387
1649792345,"2022-04-12 19:39:05",47.274817,-122.481979
1649792379,"2022-04-12 19:39:39",47.274828,-122.481573
1649792405,"2022-04-12 19:40:05",47.274823,-122.481172
1649792435,"2022-04-12 19:40:35",47.274803,-122.480766
1649792465,"2022-04-12 19:41:05",47.274814,-122.480367
1649792494,"2022-04-12 19:41:34",47.274808,-122.479962
1649792524,"2022-04-12 19:42:04",47.274804,-122.479563
1649792554,"2022-04-12 19:42:34",47.274802,-122.479165
1649792583,"2022-04-12 19:43:03",47.27482,-122.478769
1649792612,"2022-04-12 19:43:32",47.274815,-122.478364
1649792649,"2022-04-12 19:44:09",47.27476,-122.477914
1649792743,"2022-04-12 19:45:43",47.274495,-122.477823
1649792787,"2022-04-12 19:46:27",47.274118,-122.477793
1649792817,"2022-04-12 19:46:57",47.273827,-122.477812
1649792877,"2022-04-12 19:47:57",47.273298,-122.477813
1649792937,"2022-04-12 19:48:57",47.272755,-122.477808
1649792991,"2022-04-12 19:49:51",47.272484,-122.47782
1649793019,"2022-04-12 19:50:19",47.272193,-122.477833
1649793053,"2022-04-12 19:50:53",47.271922,-122.477813
1649793084,"2022-04-12 19:51:24",47.271649,-122.477807
1649793116,"2022-04-12 19:51:56",47.271378,-122.477841
1649793167,"2022-04-12 19:52:47",47.270984,-122.477874
1649793198,"2022-04-12 19:53:18",47.270712,-122.477816
1649793226,"2022-04-12 19:53:46",47.270441,-122.477816
1649793259,"2022-04-12 19:54:19",47.270169,-122.477816
1649793288,"2022-04-12 19:54:48",47.269891,-122.477821
1649793317,"2022-04-12 19:55:17",47.269615,-122.477804
1649793354,"2022-04-12 19:55:54",47.26934,-122.477835
1649793383,"2022-04-12 19:56:23",47.269062,-122.477852
1649793421,"2022-04-12 19:57:01",47.268705,-122.477873
1649793452,"2022-04-12 19:57:32",47.268432,-122.477851
1649793483,"2022-04-12 19:58:03",47.268159,-122.477873
1649793512,"2022-04-12 19:58:32",47.267885,-122.47789
1649793544,"2022-04-12 19:59:04",47.267612,-122.477878
1649793594,"2022-04-12 19:59:54",47.267335,-122.477888
1649793626,"2022-04-12 20:00:26",47.267061,-122.477841
1649793664,"2022-04-12 20:01:04",47.266746,-122.477885
1649793699,"2022-04-12 20:01:39",47.266476,-122.477897
1649793729,"2022-04-12 20:02:09",47.266204,-122.4779
1649793775,"2022-04-12 20:02:55",47.265797,-122.477873
1649793808,"2022-04-12 20:03:28",47.26552,-122.4779
1649793838,"2022-04-12 20:03:58",47.265243,-122.47791
1649793868,"2022-04-12 20:04:28",47.264977,-122.478009
1649793900,"2022-04-12 20:05:00",47.264705,-122.477991
1649793930,"2022-04-12 20:05:30",47.264435,-122.477996
1649793963,"2022-04-12 20:06:03",47.264156,-122.47797
1649794001,"2022-04-12 20:06:41",47.263831,-122.477977
1649794031,"2022-04-12 20:07:11",47.263556,-122.477987
1649794068,"2022-04-12 20:07:48",47.263249,-122.477971
1649794098,"2022-04-12 20:08:18",47.262975,-122.477986
1649794127,"2022-04-12 20:08:47",47.262701,-122.477982
1649794157,"2022-04-12 20:09:17",47.26247,-122.47772
1649794191,"2022-04-12 20:09:51",47.262193,-122.477711
1649794219,"2022-04-12 20:10:19",47.261918,-122.477704
1649794250,"2022-04-12 20:10:50",47.261645,-122.477705
1649794282,"2022-04-12 20:11:22",47.261368,-122.477721
1649794312,"2022-04-12 20:11:52",47.261093,-122.477728
1649794349,"2022-04-12 20:12:29",47.260906,-122.47803
1649794379,"2022-04-12 20:12:59",47.26063,-122.477986
1649794408,"2022-04-12 20:13:28",47.26036,-122.478001
1649794440,"2022-04-12 20:14:00",47.260083,-122.47801
1649794473,"2022-04-12 20:14:33",47.259806,-122.47793
1649794504,"2022-04-12 20:15:04",47.259534,-122.477967
1649794538,"2022-04-12 20:15:38",47.25923,-122.477991
1649794571,"2022-04-12 20:16:11",47.258956,-122.477986
1649794626,"2022-04-12 20:17:06",47.258456,-122.477911
1649794660,"2022-04-12 20:17:40",47.258182,-122.47791
1649794693,"2022-04-12 20:18:13",47.257914,-122.477858
1649794729,"2022-04-12 20:18:49",47.257617,-122.477813
1649794758,"2022-04-12 20:19:18",47.257343,-122.47785
1649794789,"2022-04-12 20:19:49",47.25707,-122.477868
1649794815,"2022-04-12 20:20:15",47.256791,-122.477847
1649794847,"2022-04-12 20:20:47",47.256515,-122.477838
1649794880,"2022-04-12 20:21:20",47.256242,-122.477838
1649794918,"2022-04-12 20:21:58",47.255915,-122.477841
1649794947,"2022-04-12 20:22:27",47.255639,-122.477825
1649794995,"2022-04-12 20:23:15",47.255365,-122.477825
1649795056,"2022-04-12 20:24:16",47.255336,-122.477424
1649795099,"2022-04-12 20:24:59",47.255281,-122.476793
1649795130,"2022-04-12 20:25:30",47.255336,-122.476399
1649795174,"2022-04-12 20:26:14",47.255356,-122.476001
1649795203,"2022-04-12 20:26:43",47.255336,-122.47559
1649795236,"2022-04-12 20:27:16",47.25536,-122.475188
1649795272,"2022-04-12 20:27:52",47.255243,-122.474784
1649795312,"2022-04-12 20:28:32",47.255618,-122.475159
1649795343,"2022-04-12 20:29:03",47.255421,-122.47469
1649796201,"2022-04-12 20:43:21",47.255339,-122.474052
1649796238,"2022-04-12 20:43:58",47.255506,-122.473719
1649796287,"2022-04-12 20:44:47",47.255526,-122.473082
1649796317,"2022-04-12 20:45:17",47.255533,-122.472676
1649796347,"2022-04-12 20:45:47",47.255485,-122.472251
1649796378,"2022-04-12 20:46:18",47.255544,-122.471782
1649796454,"2022-04-12 20:47:34",47.255433,-122.471405
1649796514,"2022-04-12 20:48:34",47.255305,-122.470742
1649796544,"2022-04-12 20:49:04",47.25537,-122.47028
1649796604,"2022-04-12 20:50:04",47.255407,-122.46942
1649796664,"2022-04-12 20:51:04",47.255368,-122.468653
1649796724,"2022-04-12 20:52:04",47.255428,-122.467943
1649796753,"2022-04-12 20:52:33",47.255445,-122.46753
1649796784,"2022-04-12 20:53:04",47.255531,-122.467129
1649796814,"2022-04-12 20:53:34",47.255371,-122.466633
1649796843,"2022-04-12 20:54:03",47.255416,-122.466198
1649796904,"2022-04-12 20:55:04",47.2554,-122.465432
1649796964,"2022-04-12 20:56:04",47.25529,-122.464661
1649796994,"2022-04-12 20:56:34",47.25549,-122.464291
1649797024,"2022-04-12 20:57:04",47.255635,-122.4639
1649797055,"2022-04-12 20:57:35",47.255948,-122.463604
1649797085,"2022-04-12 20:58:05",47.255789,-122.463278
1649797177,"2022-04-12 20:59:37",47.255971,-122.462976
1649797225,"2022-04-12 21:00:25",47.256045,-122.46226
1649797284,"2022-04-12 21:01:24",47.256209,-122.461577
1649797314,"2022-04-12 21:01:54",47.25626,-122.461153
1649797344,"2022-04-12 21:02:24",47.256219,-122.46072
1649797405,"2022-04-12 21:03:25",47.256408,-122.459867
1649797464,"2022-04-12 21:04:24",47.256449,-122.459108
1649797494,"2022-04-12 21:04:54",47.256566,-122.458721
1649797525,"2022-04-12 21:05:25",47.256453,-122.458292
1649797559,"2022-04-12 21:05:59",47.256521,-122.457901
1649797605,"2022-04-12 21:06:45",47.256597,-122.457274
1649797665,"2022-04-12 21:07:45",47.256633,-122.456525
1649797724,"2022-04-12 21:08:44",47.256767,-122.455887
1649797754,"2022-04-12 21:09:14",47.256782,-122.455482
1649797814,"2022-04-12 21:10:14",47.256839,-122.454811
1649797874,"2022-04-12 21:11:14",47.256937,-122.454022
1649797934,"2022-04-12 21:12:14",47.257034,-122.453315
1649797994,"2022-04-12 21:13:14",47.257092,-122.45269
1649798087,"2022-04-12 21:14:47",47.257224,-122.451897
1649798118,"2022-04-12 21:15:18",47.257216,-122.45141
1649798179,"2022-04-12 21:16:19",47.257208,-122.450903
1649798208,"2022-04-12 21:16:48",47.257252,-122.45048
1649798238,"2022-04-12 21:17:18",47.257335,-122.45002
1649798297,"2022-04-12 21:18:17",47.257377,-122.449511
1649798328,"2022-04-12 21:18:48",47.257507,-122.449103
1649798364,"2022-04-12 21:19:24",47.257506,-122.448701
1649798399,"2022-04-12 21:19:59",47.257534,-122.448305
1649798432,"2022-04-12 21:20:32",47.25764,-122.447934
1649798464,"2022-04-12 21:21:04",47.257659,-122.447536
1649798498,"2022-04-12 21:21:38",47.257679,-122.44713
1649798531,"2022-04-12 21:22:11",47.257715,-122.446733
1649798566,"2022-04-12 21:22:46",47.257793,-122.446346
1649798610,"2022-04-12 21:23:30",47.257799,-122.445943
1649798662,"2022-04-12 21:24:22",47.257865,-122.44555
1649798710,"2022-04-12 21:25:10",47.258025,-122.445195
1649798741,"2022-04-12 21:25:41",47.258086,-122.444801
1649798780,"2022-04-12 21:26:20",47.258195,-122.444431
1649798808,"2022-04-12 21:26:48",47.258316,-122.444069
1649798844,"2022-04-12 21:27:24",47.258337,-122.443619
1649798913,"2022-04-12 21:28:33",47.258279,-122.443231
1649798945,"2022-04-12 21:29:05",47.25803,-122.443063
1649798971,"2022-04-12 21:29:31",47.257798,-122.442857
1649799006,"2022-04-12 21:30:06",47.257566,-122.442653
1649799088,"2022-04-12 21:31:28",47.257691,-122.442061
1649799120,"2022-04-12 21:32:00",47.257756,-122.441675
1649799153,"2022-04-12 21:32:33",47.257835,-122.441283
1649799237,"2022-04-12 21:33:57",47.25786,-122.440799
1649799310,"2022-04-12 21:35:10",47.257786,-122.440409
1649799348,"2022-04-12 21:35:48",47.257525,-122.440254
1649799392,"2022-04-12 21:36:32",47.257264,-122.440368
1649799421,"2022-04-12 21:37:01",47.256986,-122.44034
1649799450,"2022-04-12 21:37:30",47.256716,-122.440288
1649799485,"2022-04-12 21:38:05",47.256456,-122.440169
1651034481,"2022-04-27 04:41:21",47.37134,-122.550493
1651035541,"2022-04-27 04:59:01",47.371377,-122.550435
1651038062,"2022-04-27 05:41:02",47.371394,-122.55044
1651038362,"2022-04-27 05:46:02",47.371395,-122.550438
1651038663,"2022-04-27 05:51:03",47.371396,-122.550442
1651038961,"2022-04-27 05:56:01",47.371396,-122.550442
1651039231,"2022-04-27 06:00:31",47.371397,-122.550442
1651039531,"2022-04-27 06:05:31",47.371397,-122.55044
1651039801,"2022-04-27 06:10:01",47.371397,-122.550438
1651040101,"2022-04-27 06:15:01",47.371397,-122.55044
1651040371,"2022-04-27 06:19:31",47.371396,-122.550441
1651040671,"2022-04-27 06:24:31",47.371394,-122.550441
1651040942,"2022-04-27 06:29:02",47.371394,-122.550441
1651041241,"2022-04-27 06:34:01",47.371374,-122.550438
1651041512,"2022-04-27 06:38:32",47.371361,-122.55046
1651041811,"2022-04-27 06:43:31",47.371359,-122.550474
1651042081,"2022-04-27 06:48:01",47.371369,-122.550457
1651042352,"2022-04-27 06:52:32",47.371372,-122.550443
1651042651,"2022-04-27 06:57:31",47.371363,-122.550442
1651042921,"2022-04-27 07:02:01",47.371365,-122.550441
1651043192,"2022-04-27 07:06:32",47.371364,-122.550438
1651043464,"2022-04-27 07:11:04",47.371367,-122.550435
1651043761,"2022-04-27 07:16:01",47.371368,-122.550442
1651044062,"2022-04-27 07:21:02",47.371364,-122.550442
1651044361,"2022-04-27 07:26:01",47.371365,-122.55044
1651044661,"2022-04-27 07:31:01",47.371365,-122.550442
1651044962,"2022-04-27 07:36:02",47.371366,-122.55044
1651045262,"2022-04-27 07:41:02",47.371367,-122.55044
1651045562,"2022-04-27 07:46:02",47.371366,-122.550441
1651132199,"2022-04-28 07:49:59",47.371355,-122.550527
1651134868,"2022-04-28 08:34:28",47.371365,-122.550426
1651135138,"2022-04-28 08:38:58",47.371364,-122.550427
1651135438,"2022-04-28 08:43:58",47.371366,-122.550427
1651135738,"2022-04-28 08:48:58",47.371365,-122.550429
1651136008,"2022-04-28 08:53:28",47.371364,-122.550429
1651136278,"2022-04-28 08:57:58",47.371363,-122.55043
1651136578,"2022-04-28 09:02:58",47.371364,-122.550432
1651136848,"2022-04-28 09:07:28",47.371362,-122.550434
1651137148,"2022-04-28 09:12:28",47.371364,-122.550437
1651137448,"2022-04-28 09:17:28",47.371364,-122.550436
1651137718,"2022-04-28 09:21:58",47.371362,-122.550437
1651137989,"2022-04-28 09:26:29",47.371361,-122.550438
1651138288,"2022-04-28 09:31:28",47.371361,-122.550437
1651138560,"2022-04-28 09:36:00",47.371359,-122.550437
1651138858,"2022-04-28 09:40:58",47.371359,-122.550436
1651139159,"2022-04-28 09:45:59",47.371359,-122.550434
1651139458,"2022-04-28 09:50:58",47.371359,-122.550433
1651139758,"2022-04-28 09:55:58",47.371358,-122.550433
1651140028,"2022-04-28 10:00:28",47.371359,-122.550433
1651140298,"2022-04-28 10:04:58",47.37136,-122.550433
1651140599,"2022-04-28 10:09:59",47.371362,-122.550432
1651140898,"2022-04-28 10:14:58",47.371363,-122.55043
1651141170,"2022-04-28 10:19:30",47.371364,-122.55043
1651141468,"2022-04-28 10:24:28",47.371366,-122.55043
1651141738,"2022-04-28 10:28:58",47.371367,-122.550431
1651142010,"2022-04-28 10:33:30",47.371368,-122.55043
1651142308,"2022-04-28 10:38:28",47.37137,-122.55043
1651142579,"2022-04-28 10:42:59",47.371372,-122.550429
1651142879,"2022-04-28 10:47:59",47.371374,-122.55043
1651143178,"2022-04-28 10:52:58",47.371376,-122.550429
1651143448,"2022-04-28 10:57:28",47.371378,-122.550429
1651143646,"2022-04-28 11:00:46",47.371379,-122.550429
1651145275,"2022-04-28 11:27:55",47.371381,-122.550429
1651145546,"2022-04-28 11:32:26",47.37138,-122.550429
1651145845,"2022-04-28 11:37:25",47.371381,-122.550429
1651146116,"2022-04-28 11:41:56",47.371381,-122.550429
1651146386,"2022-04-28 11:46:26",47.37138,-122.55043
1651146656,"2022-04-28 11:50:56",47.37138,-122.550429
1651146926,"2022-04-28 11:55:26",47.37138,-122.550429
1651147196,"2022-04-28 11:59:56",47.37138,-122.550429
1651147467,"2022-04-28 12:04:27",47.371381,-122.55043
1651147738,"2022-04-28 12:08:58",47.37138,-122.55043
1651148036,"2022-04-28 12:13:56",47.37138,-122.55043
1651148306,"2022-04-28 12:18:26",47.37138,-122.55043
1651148578,"2022-04-28 12:22:58",47.37138,-122.55043
1651148878,"2022-04-28 12:27:58",47.37138,-122.55043
1651149176,"2022-04-28 12:32:56",47.37138,-122.550431
1651149446,"2022-04-28 12:37:26",47.371379,-122.550431
1651149746,"2022-04-28 12:42:26",47.37138,-122.550431
1651150016,"2022-04-28 12:46:56",47.37138,-122.550431
1651150316,"2022-04-28 12:51:56",47.371379,-122.550431
1651150616,"2022-04-28 12:56:56",47.371379,-122.550431
1651150915,"2022-04-28 13:01:55",47.371379,-122.550432
1651151186,"2022-04-28 13:06:26",47.371379,-122.550432
1651151456,"2022-04-28 13:10:56",47.371379,-122.550432
1651151757,"2022-04-28 13:15:57",47.371378,-122.550432
1651152056,"2022-04-28 13:20:56",47.371378,-122.550432
1651152356,"2022-04-28 13:25:56",47.371378,-122.550432
1651152655,"2022-04-28 13:30:55",47.371378,-122.550432
1651152926,"2022-04-28 13:35:26",47.371378,-122.550432
1651153197,"2022-04-28 13:39:57",47.371378,-122.550432
1651153496,"2022-04-28 13:44:56",47.371378,-122.550432
1651153795,"2022-04-28 13:49:55",47.371377,-122.550432
1651154065,"2022-04-28 13:54:25",47.371377,-122.550432
1651154336,"2022-04-28 13:58:56",47.371376,-122.550432
1651154636,"2022-04-28 14:03:56",47.371376,-122.550432
1651154906,"2022-04-28 14:08:26",47.371376,-122.550432
1651155206,"2022-04-28 14:13:26",47.371377,-122.550433
1651155505,"2022-04-28 14:18:25",47.371377,-122.550433
1651155776,"2022-04-28 14:22:56",47.371376,-122.550433
1651156047,"2022-04-28 14:27:27",47.371376,-122.550433
1651156345,"2022-04-28 14:32:25",47.371375,-122.550433
1651156616,"2022-04-28 14:36:56",47.371375,-122.550434
1651156915,"2022-04-28 14:41:55",47.371374,-122.550434
1651157186,"2022-04-28 14:46:26",47.371374,-122.550434
1651157456,"2022-04-28 14:50:56",47.371374,-122.550434
1651157756,"2022-04-28 14:55:56",47.371374,-122.550434
1651158027,"2022-04-28 15:00:27",47.371374,-122.550434
1651158297,"2022-04-28 15:04:57",47.371374,-122.550434
1651158596,"2022-04-28 15:09:56",47.371374,-122.550434
1651158866,"2022-04-28 15:14:26",47.371374,-122.550434
1651159166,"2022-04-28 15:19:26",47.371374,-122.550435
1651159436,"2022-04-28 15:23:56",47.371374,-122.550435
1651159707,"2022-04-28 15:28:27",47.371374,-122.550435
1651160006,"2022-04-28 15:33:26",47.371375,-122.550435
1651160276,"2022-04-28 15:37:56",47.371375,-122.550435
1651160546,"2022-04-28 15:42:26",47.371375,-122.550435
1651160846,"2022-04-28 15:47:26",47.371375,-122.550435
1651161116,"2022-04-28 15:51:56",47.371374,-122.550435
1651161415,"2022-04-28 15:56:55",47.371374,-122.550435
1651161688,"2022-04-28 16:01:28",47.371374,-122.550435
1651161986,"2022-04-28 16:06:26",47.371374,-122.550435
1651162257,"2022-04-28 16:10:57",47.371374,-122.550435
1651162556,"2022-04-28 16:15:56",47.371374,-122.550435
1651162826,"2022-04-28 16:20:26",47.371374,-122.550435
1651163097,"2022-04-28 16:24:57",47.371373,-122.550435
1651163396,"2022-04-28 16:29:56",47.371373,-122.550435
1651163668,"2022-04-28 16:34:28",47.371373,-122.550435
1651163967,"2022-04-28 16:39:27",47.371374,-122.550435
1651164266,"2022-04-28 16:44:26",47.371373,-122.550436
1651164566,"2022-04-28 16:49:26",47.371373,-122.550436
1651164866,"2022-04-28 16:54:26",47.371373,-122.550436
1651165137,"2022-04-28 16:58:57",47.371374,-122.550436
1651165436,"2022-04-28 17:03:56",47.371374,-122.550436
1651165736,"2022-04-28 17:08:56",47.371374,-122.550435
1651166006,"2022-04-28 17:13:26",47.371374,-122.550436
1651166276,"2022-04-28 17:17:56",47.371374,-122.550436
1651166546,"2022-04-28 17:22:26",47.371374,-122.550436
1651166816,"2022-04-28 17:26:56",47.371374,-122.550436
1651167116,"2022-04-28 17:31:56",47.371374,-122.550436
1651167386,"2022-04-28 17:36:26",47.371374,-122.550436
1651167658,"2022-04-28 17:40:58",47.371374,-122.550435
1651167956,"2022-04-28 17:45:56",47.371374,-122.550436
1651168227,"2022-04-28 17:50:27",47.371374,-122.550435
1651168526,"2022-04-28 17:55:26",47.371374,-122.550435
1651168798,"2022-04-28 17:59:58",47.371374,-122.550435
1651169097,"2022-04-28 18:04:57",47.371374,-122.550435
1651169397,"2022-04-28 18:09:57",47.371374,-122.550435
1651169696,"2022-04-28 18:14:56",47.371374,-122.550436
1651169966,"2022-04-28 18:19:26",47.371374,-122.550436
1651170266,"2022-04-28 18:24:26",47.371374,-122.550436
1651170566,"2022-04-28 18:29:26",47.371373,-122.550436
1651170836,"2022-04-28 18:33:56",47.371373,-122.550436
1651171107,"2022-04-28 18:38:27",47.371373,-122.550436
1651171406,"2022-04-28 18:43:26",47.371373,-122.550436
1651171677,"2022-04-28 18:47:57",47.371373,-122.550436
1651171977,"2022-04-28 18:52:57",47.371373,-122.550436
1651172248,"2022-04-28 18:57:28",47.371373,-122.550436
1651172546,"2022-04-28 19:02:26",47.371372,-122.550436
1651172847,"2022-04-28 19:07:27",47.371372,-122.550436
1651173147,"2022-04-28 19:12:27",47.371372,-122.550436
1651173445,"2022-04-28 19:17:25",47.371372,-122.550436
1651173717,"2022-04-28 19:21:57",47.371372,-122.550436
1651174018,"2022-04-28 19:26:58",47.371372,-122.550436
1651174316,"2022-04-28 19:31:56",47.371371,-122.550436
1651174618,"2022-04-28 19:36:58",47.371372,-122.550436
1651174916,"2022-04-28 19:41:56",47.371371,-122.550436
1651175215,"2022-04-28 19:46:55",47.371372,-122.550436
1651175486,"2022-04-28 19:51:26",47.371371,-122.550436
1651175756,"2022-04-28 19:55:56",47.371371,-122.550436
1651176056,"2022-04-28 20:00:56",47.371371,-122.550436
1651176328,"2022-04-28 20:05:28",47.371371,-122.550436
1651176626,"2022-04-28 20:10:26",47.371371,-122.550436
1651176926,"2022-04-28 20:15:26",47.371371,-122.550436
1651177197,"2022-04-28 20:19:57",47.371371,-122.550436
1651177496,"2022-04-28 20:24:56",47.371371,-122.550436
1651177766,"2022-04-28 20:29:26",47.371371,-122.550436
1651178066,"2022-04-28 20:34:26",47.371371,-122.550436
1651178336,"2022-04-28 20:38:56",47.371371,-122.550436
1651178606,"2022-04-28 20:43:26",47.371371,-122.550436
1651178907,"2022-04-28 20:48:27",47.37137,-122.550436
1651179207,"2022-04-28 20:53:27",47.37137,-122.550436
1651179507,"2022-04-28 20:58:27",47.37137,-122.550436
1651179807,"2022-04-28 21:03:27",47.37137,-122.550436
1651180078,"2022-04-28 21:07:58",47.37137,-122.550436
1651180376,"2022-04-28 21:12:56",47.37137,-122.550436
1651180646,"2022-04-28 21:17:26",47.37137,-122.550436
1651180948,"2022-04-28 21:22:28",47.37137,-122.550436
1651181218,"2022-04-28 21:26:58",47.37137,-122.550436
1651204392,"2022-04-29 03:53:12",47.371379,-122.550282
1651206150,"2022-04-29 04:22:30",47.371346,-122.550475
1651206449,"2022-04-29 04:27:29",47.371344,-122.550472
1651206749,"2022-04-29 04:32:29",47.371344,-122.550462
1651207019,"2022-04-29 04:36:59",47.371342,-122.550461
1651207319,"2022-04-29 04:41:59",47.371344,-122.550463
1651207590,"2022-04-29 04:46:30",47.371348,-122.550465
1651207889,"2022-04-29 04:51:29",47.37135,-122.550465
1651208189,"2022-04-29 04:56:29",47.371353,-122.550462
1651208459,"2022-04-29 05:00:59",47.371357,-122.550461
1651208730,"2022-04-29 05:05:30",47.371358,-122.550459
1651208880,"2022-04-29 05:08:00",47.371359,-122.550458
1651210699,"2022-04-29 05:38:19",47.371361,-122.550454
1651210969,"2022-04-29 05:42:49",47.371362,-122.550453
1651211268,"2022-04-29 05:47:48",47.371362,-122.550453
1651211539,"2022-04-29 05:52:19",47.371364,-122.550453
1651211809,"2022-04-29 05:56:49",47.371365,-122.550454
1651212079,"2022-04-29 06:01:19",47.371367,-122.550452
1651212349,"2022-04-29 06:05:49",47.371367,-122.550452
1651212648,"2022-04-29 06:10:48",47.371367,-122.550453
1651212919,"2022-04-29 06:15:19",47.371367,-122.550453
1651213189,"2022-04-29 06:19:49",47.371368,-122.550453
1651213488,"2022-04-29 06:24:48",47.371415,-122.550436
1651213759,"2022-04-29 06:29:19",47.371406,-122.550412
1651214029,"2022-04-29 06:33:49",47.371413,-122.550427
1651214299,"2022-04-29 06:38:19",47.371412,-122.550439
1651214598,"2022-04-29 06:43:18",47.371404,-122.55044
1651214868,"2022-04-29 06:47:48",47.37135,-122.55052
1651215139,"2022-04-29 06:52:19",47.371368,-122.550478
1651215439,"2022-04-29 06:57:19",47.371389,-122.550391
1651215709,"2022-04-29 07:01:49",47.371383,-122.550411
1651216009,"2022-04-29 07:06:49",47.371394,-122.55041
1651216279,"2022-04-29 07:11:19",47.371251,-122.550468
1651216549,"2022-04-29 07:15:49",47.371324,-122.55049
1651216849,"2022-04-29 07:20:49",47.371326,-122.550491
1651217149,"2022-04-29 07:25:49",47.371345,-122.550477
1651217448,"2022-04-29 07:30:48",47.371348,-122.550475
1651217719,"2022-04-29 07:35:19",47.371349,-122.550472
1651217989,"2022-04-29 07:39:49",47.37135,-122.550471
1651218259,"2022-04-29 07:44:19",47.371351,-122.550463
1651218558,"2022-04-29 07:49:18",47.371445,-122.550433
1651218828,"2022-04-29 07:53:48",47.371346,-122.550413
1651219099,"2022-04-29 07:58:19",47.371363,-122.550436
1651219398,"2022-04-29 08:03:18",47.371371,-122.550443
1651219698,"2022-04-29 08:08:18",47.371373,-122.550451
1651219969,"2022-04-29 08:12:49",47.371368,-122.550449
1651220268,"2022-04-29 08:17:48",47.371369,-122.550448
1651220568,"2022-04-29 08:22:48",47.371373,-122.550449
1651220838,"2022-04-29 08:27:18",47.371374,-122.550448
1651221108,"2022-04-29 08:31:48",47.371378,-122.550451
1651221408,"2022-04-29 08:36:48",47.371381,-122.550452
1651221678,"2022-04-29 08:41:18",47.371377,-122.550451
1651221949,"2022-04-29 08:45:49",47.371377,-122.550447
1651222219,"2022-04-29 08:50:19",47.371378,-122.550448
1651222489,"2022-04-29 08:54:49",47.371378,-122.55045
1651222788,"2022-04-29 08:59:48",47.371378,-122.550451
1651223059,"2022-04-29 09:04:19",47.371379,-122.550449
1651223359,"2022-04-29 09:09:19",47.371379,-122.55045
1651223658,"2022-04-29 09:14:18",47.371379,-122.55045
1651223958,"2022-04-29 09:19:18",47.371379,-122.550451
1651224228,"2022-04-29 09:23:48",47.371378,-122.550451
1651224499,"2022-04-29 09:28:19",47.371379,-122.550454
1651224798,"2022-04-29 09:33:18",47.371362,-122.550461
1651225068,"2022-04-29 09:37:48",47.371362,-122.550461
1651225338,"2022-04-29 09:42:18",47.371368,-122.550463
1651225638,"2022-04-29 09:47:18",47.371374,-122.550457
1651225908,"2022-04-29 09:51:48",47.371371,-122.550455
1651226179,"2022-04-29 09:56:19",47.371369,-122.550452
1651226478,"2022-04-29 10:01:18",47.371344,-122.550464
1651226749,"2022-04-29 10:05:49",47.371358,-122.550489
1651227049,"2022-04-29 10:10:49",47.371364,-122.550486
1651227349,"2022-04-29 10:15:49",47.371257,-122.550612
1651227621,"2022-04-29 10:20:21",47.371319,-122.550476
1651227919,"2022-04-29 10:25:19",47.371346,-122.550462
1651228218,"2022-04-29 10:30:18",47.371348,-122.550451
1651228489,"2022-04-29 10:34:49",47.371353,-122.550453
1651228789,"2022-04-29 10:39:49",47.371352,-122.550457
1651229059,"2022-04-29 10:44:19",47.371341,-122.550473
1651229359,"2022-04-29 10:49:19",47.37135,-122.550464
1651229658,"2022-04-29 10:54:18",47.37135,-122.550458
1651229928,"2022-04-29 10:58:48",47.371349,-122.550457
1651230198,"2022-04-29 11:03:18",47.371359,-122.550423
1651230498,"2022-04-29 11:08:18",47.371363,-122.550423
1651230768,"2022-04-29 11:12:48",47.371379,-122.550431
1651231041,"2022-04-29 11:17:21",47.371381,-122.550434
1651231338,"2022-04-29 11:22:18",47.371375,-122.550428
1651231608,"2022-04-29 11:26:48",47.37137,-122.550432
1651231879,"2022-04-29 11:31:19",47.371366,-122.550434
1651232149,"2022-04-29 11:35:49",47.371366,-122.550433
1651232419,"2022-04-29 11:40:19",47.371362,-122.550432
1651232719,"2022-04-29 11:45:19",47.371361,-122.550431
1651232989,"2022-04-29 11:49:49",47.371359,-122.550434
1651233288,"2022-04-29 11:54:48",47.371358,-122.550434
1651233588,"2022-04-29 11:59:48",47.371357,-122.550437
1651233859,"2022-04-29 12:04:19",47.371356,-122.550439
1651234158,"2022-04-29 12:09:18",47.371356,-122.550441
1651234429,"2022-04-29 12:13:49",47.371356,-122.55044
1651234728,"2022-04-29 12:18:48",47.371355,-122.55044
1651234998,"2022-04-29 12:23:18",47.371354,-122.550439
1651235269,"2022-04-29 12:27:49",47.371353,-122.550439
1651235569,"2022-04-29 12:32:49",47.371354,-122.550438
1651235868,"2022-04-29 12:37:48",47.371355,-122.550439
1651236138,"2022-04-29 12:42:18",47.371354,-122.550437
1651236438,"2022-04-29 12:47:18",47.371354,-122.550439
1651236708,"2022-04-29 12:51:48",47.371355,-122.550439
1651237008,"2022-04-29 12:56:48",47.371354,-122.550442
1651237279,"2022-04-29 13:01:19",47.371354,-122.550442
1651237578,"2022-04-29 13:06:18",47.371354,-122.550442
1651237848,"2022-04-29 13:10:48",47.371352,-122.550441
1651238119,"2022-04-29 13:15:19",47.371352,-122.550443
1651238389,"2022-04-29 13:19:49",47.371353,-122.550444
1651238659,"2022-04-29 13:24:19",47.371354,-122.550444
1651238958,"2022-04-29 13:29:18",47.371353,-122.550444
1651239229,"2022-04-29 13:33:49",47.371353,-122.550444
1651239499,"2022-04-29 13:38:19",47.371353,-122.550444
1651239799,"2022-04-29 13:43:19",47.371353,-122.550444
1651240099,"2022-04-29 13:48:19",47.371354,-122.550445
1651240399,"2022-04-29 13:53:19",47.371355,-122.550445
1651240698,"2022-04-29 13:58:18",47.371355,-122.550445
1651240969,"2022-04-29 14:02:49",47.371355,-122.550445
1651241269,"2022-04-29 14:07:49",47.371355,-122.550445
1651241568,"2022-04-29 14:12:48",47.371355,-122.550445
1651241839,"2022-04-29 14:17:19",47.371355,-122.550445
1651242138,"2022-04-29 14:22:18",47.371355,-122.550446
1651242408,"2022-04-29 14:26:48",47.371355,-122.550445
1651242678,"2022-04-29 14:31:18",47.371355,-122.550446
1651242949,"2022-04-29 14:35:49",47.371355,-122.550445
1651243248,"2022-04-29 14:40:48",47.371355,-122.550445
1651243519,"2022-04-29 14:45:19",47.371355,-122.550445
1651243818,"2022-04-29 14:50:18",47.371356,-122.550445
1651244088,"2022-04-29 14:54:48",47.371356,-122.550445
1651244388,"2022-04-29 14:59:48",47.371356,-122.550445
1651244658,"2022-04-29 15:04:18",47.371356,-122.550444
1651244928,"2022-04-29 15:08:48",47.371356,-122.550444
1651245229,"2022-04-29 15:13:49",47.371357,-122.550444
1651245528,"2022-04-29 15:18:48",47.371357,-122.550444
1651245799,"2022-04-29 15:23:19",47.371358,-122.550444
1651246100,"2022-04-29 15:28:20",47.371358,-122.550444
1651246399,"2022-04-29 15:33:19",47.371359,-122.550444
1651246699,"2022-04-29 15:38:19",47.371359,-122.550443
1651246999,"2022-04-29 15:43:19",47.371358,-122.550443
1651247269,"2022-04-29 15:47:49",47.371358,-122.550443
1651247568,"2022-04-29 15:52:48",47.371358,-122.550443
1651247838,"2022-04-29 15:57:18",47.371358,-122.550442
1651248110,"2022-04-29 16:01:50",47.371358,-122.550442
1651248408,"2022-04-29 16:06:48",47.371358,-122.550442
1651248679,"2022-04-29 16:11:19",47.371358,-122.550442
1651248978,"2022-04-29 16:16:18",47.371357,-122.550441
1651249249,"2022-04-29 16:20:49",47.371357,-122.550441
1651249548,"2022-04-29 16:25:48",47.371357,-122.550441
1651249818,"2022-04-29 16:30:18",47.371357,-122.550441
1651250089,"2022-04-29 16:34:49",47.371356,-122.550441
1651250359,"2022-04-29 16:39:19",47.371356,-122.550441
1651250658,"2022-04-29 16:44:18",47.371356,-122.550441
1651250928,"2022-04-29 16:48:48",47.371356,-122.550441
1651251199,"2022-04-29 16:53:19",47.371356,-122.550441
1651251469,"2022-04-29 16:57:49",47.371356,-122.550441
1651251739,"2022-04-29 17:02:19",47.371356,-122.550441
1651252038,"2022-04-29 17:07:18",47.371356,-122.550441
1651252308,"2022-04-29 17:11:48",47.371356,-122.550441
1651252580,"2022-04-29 17:16:20",47.371356,-122.55044
1651252879,"2022-04-29 17:21:19",47.371357,-122.550441
1651253149,"2022-04-29 17:25:49",47.371357,-122.550441
1651253419,"2022-04-29 17:30:19",47.371357,-122.55044
1651253690,"2022-04-29 17:34:50",47.371357,-122.55044
1651253989,"2022-04-29 17:39:49",47.371357,-122.55044
1651254289,"2022-04-29 17:44:49",47.371357,-122.55044
1651254560,"2022-04-29 17:49:20",47.371357,-122.55044
1651254859,"2022-04-29 17:54:19",47.371357,-122.55044
1651255129,"2022-04-29 17:58:49",47.371357,-122.55044
1651255429,"2022-04-29 18:03:49",47.371356,-122.55044
1651255729,"2022-04-29 18:08:49",47.371356,-122.55044
1651255999,"2022-04-29 18:13:19",47.371356,-122.55044
1651256270,"2022-04-29 18:17:50",47.371356,-122.55044
1651256569,"2022-04-29 18:22:49",47.371356,-122.55044
1651256870,"2022-04-29 18:27:50",47.371356,-122.55044
1651257168,"2022-04-29 18:32:48",47.371356,-122.55044
1651257439,"2022-04-29 18:37:19",47.371356,-122.55044
1651257709,"2022-04-29 18:41:49",47.371357,-122.550439
1651258008,"2022-04-29 18:46:48",47.371357,-122.550439
1651258279,"2022-04-29 18:51:19",47.371357,-122.550439
1651258549,"2022-04-29 18:55:49",47.371357,-122.550439
1651258819,"2022-04-29 19:00:19",47.371357,-122.550439
1651259119,"2022-04-29 19:05:19",47.371357,-122.550438
1651259419,"2022-04-29 19:10:19",47.371357,-122.550438
1651259719,"2022-04-29 19:15:19",47.371357,-122.550438
1651260019,"2022-04-29 19:20:19",47.371357,-122.550438
1651260319,"2022-04-29 19:25:19",47.371357,-122.550438
1651260590,"2022-04-29 19:29:50",47.371357,-122.550438
1651260888,"2022-04-29 19:34:48",47.371357,-122.550438
1651261159,"2022-04-29 19:39:19",47.371357,-122.550438
1651261429,"2022-04-29 19:43:49",47.371357,-122.550438
1651261699,"2022-04-29 19:48:19",47.371357,-122.550437
1651261969,"2022-04-29 19:52:49",47.371357,-122.550437
1651262269,"2022-04-29 19:57:49",47.371357,-122.550437
1651262539,"2022-04-29 20:02:19",47.371357,-122.550437
1651262838,"2022-04-29 20:07:18",47.371357,-122.550437
1651263139,"2022-04-29 20:12:19",47.371357,-122.550437
1651263409,"2022-04-29 20:16:49",47.371357,-122.550437
1651263679,"2022-04-29 20:21:19",47.371358,-122.550437
1651263979,"2022-04-29 20:26:19",47.371358,-122.550437
1651264278,"2022-04-29 20:31:18",47.371358,-122.550437
1651264549,"2022-04-29 20:35:49",47.371358,-122.550438
1651264819,"2022-04-29 20:40:19",47.371358,-122.550438
1651265118,"2022-04-29 20:45:18",47.371358,-122.550438
1651265390,"2022-04-29 20:49:50",47.371358,-122.550438
1651265689,"2022-04-29 20:54:49",47.371359,-122.550438
1651265959,"2022-04-29 20:59:19",47.371359,-122.550438
1651266258,"2022-04-29 21:04:18",47.371359,-122.550438
1651266558,"2022-04-29 21:09:18",47.371359,-122.550439
1651266829,"2022-04-29 21:13:49",47.371359,-122.550439
1651267129,"2022-04-29 21:18:49",47.371359,-122.550438
1651267400,"2022-04-29 21:23:20",47.371359,-122.550438
1651267699,"2022-04-29 21:28:19",47.371359,-122.550438
1651267970,"2022-04-29 21:32:50",47.371359,-122.550438
1651268268,"2022-04-29 21:37:48",47.371359,-122.550439
1651268539,"2022-04-29 21:42:19",47.371359,-122.550439
1651268809,"2022-04-29 21:46:49",47.371359,-122.550439
1651269109,"2022-04-29 21:51:49",47.371359,-122.550438
1651269379,"2022-04-29 21:56:19",47.371359,-122.550439
1651269679,"2022-04-29 22:01:19",47.371359,-122.550439
1651269979,"2022-04-29 22:06:19",47.371359,-122.550439
1651270249,"2022-04-29 22:10:49",47.371359,-122.550439
1651270549,"2022-04-29 22:15:49",47.371359,-122.550439
1651270849,"2022-04-29 22:20:49",47.371359,-122.550439
1651271119,"2022-04-29 22:25:19",47.371359,-122.550439
1651271389,"2022-04-29 22:29:49",47.371359,-122.550439
1651271659,"2022-04-29 22:34:19",47.371359,-122.550439
1651271690,"2022-04-29 22:34:50",47.371887,-122.551835
1651271720,"2022-04-29 22:35:20",47.371658,-122.551239
1651271749,"2022-04-29 22:35:49",47.372064,-122.551365
1651271841,"2022-04-29 22:37:21",47.370632,-122.550265
1651271870,"2022-04-29 22:37:50",47.371236,-122.550436
1651272770,"2022-04-29 22:52:50",47.37173,-122.552396
1651272891,"2022-04-29 22:54:51",47.371527,-122.551044
1651272919,"2022-04-29 22:55:19",47.371477,-122.550479
1651275409,"2022-04-29 23:36:49",47.371364,-122.550446
1651275501,"2022-04-29 23:38:21",47.372886,-122.55275
1651275531,"2022-04-29 23:38:51",47.371526,-122.550524
1651275709,"2022-04-29 23:41:49",47.371347,-122.550356
1651275741,"2022-04-29 23:42:21",47.371111,-122.553198
1651275769,"2022-04-29 23:42:49",47.371405,-122.550299
1651275979,"2022-04-29 23:46:19",47.371328,-122.550441
1651276250,"2022-04-29 23:50:50",47.371315,-122.55046
1651278110,"2022-04-30 00:21:50",47.371359,-122.550461
1651278409,"2022-04-30 00:26:49",47.371361,-122.550462
1651278680,"2022-04-30 00:31:20",47.371362,-122.550464
1651278979,"2022-04-30 00:36:19",47.371363,-122.550463
1651279281,"2022-04-30 00:41:21",47.371364,-122.550465
1651279579,"2022-04-30 00:46:19",47.371367,-122.55046
1651279879,"2022-04-30 00:51:19",47.371366,-122.550461
1651280179,"2022-04-30 00:56:19",47.371368,-122.550459
1651280479,"2022-04-30 01:01:19",47.371367,-122.55046
1651280780,"2022-04-30 01:06:20",47.371369,-122.55046
1651281079,"2022-04-30 01:11:19",47.371369,-122.550459
1651281380,"2022-04-30 01:16:20",47.371369,-122.55046
1651281678,"2022-04-30 01:21:18",47.371366,-122.550461
1651281949,"2022-04-30 01:25:49",47.37136,-122.550461
1651282221,"2022-04-30 01:30:21",47.371361,-122.550462
1651282519,"2022-04-30 01:35:19",47.371361,-122.550463
1651282790,"2022-04-30 01:39:50",47.37136,-122.550461
1651283089,"2022-04-30 01:44:49",47.371359,-122.550459
1651283389,"2022-04-30 01:49:49",47.37136,-122.550459
1651283688,"2022-04-30 01:54:48",47.371358,-122.55046
1651283959,"2022-04-30 01:59:19",47.371358,-122.55046
1651284229,"2022-04-30 02:03:49",47.371357,-122.55046
1651284499,"2022-04-30 02:08:19",47.371356,-122.55046
1651284769,"2022-04-30 02:12:49",47.371355,-122.550459
1651285039,"2022-04-30 02:17:19",47.371354,-122.55046
1651285341,"2022-04-30 02:22:21",47.371354,-122.550459
1651285611,"2022-04-30 02:26:51",47.371353,-122.550458
1651285911,"2022-04-30 02:31:51",47.371352,-122.550458
1651286209,"2022-04-30 02:36:49",47.371351,-122.550457
1651286480,"2022-04-30 02:41:20",47.37135,-122.550456
1651286750,"2022-04-30 02:45:50",47.371348,-122.550455
1651287049,"2022-04-30 02:50:49",47.371347,-122.550455
1651287350,"2022-04-30 02:55:50",47.371348,-122.550455
1651287649,"2022-04-30 03:00:49",47.371348,-122.550454
1651287920,"2022-04-30 03:05:20",47.371349,-122.550454
1651288220,"2022-04-30 03:10:20",47.371348,-122.550454
1651288519,"2022-04-30 03:15:19",47.371347,-122.550453
1651288791,"2022-04-30 03:19:51",47.371348,-122.550453
1651289089,"2022-04-30 03:24:49",47.371349,-122.550455
1651289360,"2022-04-30 03:29:20",47.371349,-122.550454
1651289660,"2022-04-30 03:34:20",47.371349,-122.550454
1651289959,"2022-04-30 03:39:19",47.371349,-122.550454
1651290229,"2022-04-30 03:43:49",47.371349,-122.550454
1651290499,"2022-04-30 03:48:19",47.371349,-122.550453
1651290799,"2022-04-30 03:53:19",47.371349,-122.550453
1651291069,"2022-04-30 03:57:49",47.371349,-122.550452
1651291340,"2022-04-30 04:02:20",47.37135,-122.550452
1651291610,"2022-04-30 04:06:50",47.371351,-122.550452
1651291909,"2022-04-30 04:11:49",47.371352,-122.550452
1651292179,"2022-04-30 04:16:19",47.371353,-122.550452
1651292450,"2022-04-30 04:20:50",47.371354,-122.550451
1651292748,"2022-04-30 04:25:48",47.371354,-122.550451
1651293018,"2022-04-30 04:30:18",47.371356,-122.550451
1651293289,"2022-04-30 04:34:49",47.371355,-122.55045
1651293559,"2022-04-30 04:39:19",47.371356,-122.55045
1651293829,"2022-04-30 04:43:49",47.371357,-122.55045
1651294129,"2022-04-30 04:48:49",47.371358,-122.55045
1651294429,"2022-04-30 04:53:49",47.371358,-122.55045
1651294699,"2022-04-30 04:58:19",47.371358,-122.55045
1651294970,"2022-04-30 05:02:50",47.371358,-122.55045
1651295269,"2022-04-30 05:07:49",47.371359,-122.55045
1651295569,"2022-04-30 05:12:49",47.37136,-122.55045
1651295598,"2022-04-30 05:13:18",47.37136,-122.55045
1651295892,"2022-04-30 05:18:12",47.37136,-122.55045
1651297871,"2022-04-30 05:51:11",47.371362,-122.55045
1651298141,"2022-04-30 05:55:41",47.371362,-122.55045
1651298411,"2022-04-30 06:00:11",47.371362,-122.55045
1651298682,"2022-04-30 06:04:42",47.371362,-122.550449
1651298952,"2022-04-30 06:09:12",47.371362,-122.55045
1651299251,"2022-04-30 06:14:11",47.371362,-122.55045
1651299521,"2022-04-30 06:18:41",47.371362,-122.550449
1651299792,"2022-04-30 06:23:12",47.371362,-122.550449
1651300064,"2022-04-30 06:27:44",47.371362,-122.550449
1651300361,"2022-04-30 06:32:41",47.371362,-122.55045
1651300632,"2022-04-30 06:37:12",47.371362,-122.550449
1651300931,"2022-04-30 06:42:11",47.371362,-122.550449
1651301202,"2022-04-30 06:46:42",47.371362,-122.550448
1651301501,"2022-04-30 06:51:41",47.371362,-122.550448
1651301771,"2022-04-30 06:56:11",47.371362,-122.550448
1651302070,"2022-04-30 07:01:10",47.371362,-122.550449
1651302341,"2022-04-30 07:05:41",47.371362,-122.550448
1651302641,"2022-04-30 07:10:41",47.371363,-122.550448
1651302941,"2022-04-30 07:15:41",47.371363,-122.550448
1651303211,"2022-04-30 07:20:11",47.371363,-122.550448
1651303481,"2022-04-30 07:24:41",47.371363,-122.550448
1651303781,"2022-04-30 07:29:41",47.371363,-122.550448
1651304081,"2022-04-30 07:34:41",47.371362,-122.550449
1651304351,"2022-04-30 07:39:11",47.371362,-122.550448
1651304621,"2022-04-30 07:43:41",47.371362,-122.550448
1651304891,"2022-04-30 07:48:11",47.371362,-122.550449
1651305192,"2022-04-30 07:53:12",47.371362,-122.550448
1651305491,"2022-04-30 07:58:11",47.371362,-122.550448
1651305762,"2022-04-30 08:02:42",47.371362,-122.550449
1651306062,"2022-04-30 08:07:42",47.371361,-122.550448
1651306361,"2022-04-30 08:12:41",47.371361,-122.550449
1651306631,"2022-04-30 08:17:11",47.371361,-122.550449
1651306902,"2022-04-30 08:21:42",47.371361,-122.550449
1651307172,"2022-04-30 08:26:12",47.371361,-122.550449
1651307442,"2022-04-30 08:30:42",47.371361,-122.550449
1651307741,"2022-04-30 08:35:41",47.371361,-122.55045
1651308011,"2022-04-30 08:40:11",47.371361,-122.550449
1651308281,"2022-04-30 08:44:41",47.371361,-122.550449
1651308551,"2022-04-30 08:49:11",47.371361,-122.550449
1651308822,"2022-04-30 08:53:42",47.371361,-122.550449
1651309121,"2022-04-30 08:58:41",47.371361,-122.550449
1651309393,"2022-04-30 09:03:13",47.371361,-122.550449
1651309692,"2022-04-30 09:08:12",47.371361,-122.550449
1651309991,"2022-04-30 09:13:11",47.371361,-122.550449
1651310261,"2022-04-30 09:17:41",47.371361,-122.550449
1651310532,"2022-04-30 09:22:12",47.371361,-122.550449
1651310831,"2022-04-30 09:27:11",47.371361,-122.550448
1651311102,"2022-04-30 09:31:42",47.371361,-122.550448
1651311372,"2022-04-30 09:36:12",47.371361,-122.550449
1651311671,"2022-04-30 09:41:11",47.371361,-122.550449
1651311941,"2022-04-30 09:45:41",47.37136,-122.550448
1651312211,"2022-04-30 09:50:11",47.37136,-122.550448
1651312482,"2022-04-30 09:54:42",47.37136,-122.550448
1651312752,"2022-04-30 09:59:12",47.371361,-122.550448
1651313052,"2022-04-30 10:04:12",47.371361,-122.550448
1651313352,"2022-04-30 10:09:12",47.37136,-122.550448
1651313622,"2022-04-30 10:13:42",47.37136,-122.550448
1651313893,"2022-04-30 10:18:13",47.37136,-122.550448
1651314032,"2022-04-30 10:20:32",47.37136,-122.550448
1651315691,"2022-04-30 10:48:11",47.371359,-122.550447
1651315991,"2022-04-30 10:53:11",47.371359,-122.550447
1651316261,"2022-04-30 10:57:41",47.371359,-122.550447
1651316531,"2022-04-30 11:02:11",47.371359,-122.550447
1651316831,"2022-04-30 11:07:11",47.371359,-122.550447
1651317131,"2022-04-30 11:12:11",47.371359,-122.550447
1651317431,"2022-04-30 11:17:11",47.371359,-122.550447
1651317731,"2022-04-30 11:22:11",47.371359,-122.550447
1651318031,"2022-04-30 11:27:11",47.37136,-122.550447
1651318301,"2022-04-30 11:31:41",47.37136,-122.550447
1651318571,"2022-04-30 11:36:11",47.37136,-122.550447
1651318841,"2022-04-30 11:40:41",47.371359,-122.550447
1651318870,"2022-04-30 11:41:10",47.370937,-122.550257
1651318900,"2022-04-30 11:41:40",47.371284,-122.55039
1651319141,"2022-04-30 11:45:41",47.371314,-122.550436
1651321092,"2022-04-30 12:18:12",47.371331,-122.550432
1651321392,"2022-04-30 12:23:12",47.371334,-122.550434
1651321691,"2022-04-30 12:28:11",47.371342,-122.550439
1651321961,"2022-04-30 12:32:41",47.371344,-122.550441
1651322261,"2022-04-30 12:37:41",47.371348,-122.550442
1651322531,"2022-04-30 12:42:11",47.371348,-122.55044
1651322801,"2022-04-30 12:46:41",47.371349,-122.550438
1651323072,"2022-04-30 12:51:12",47.371349,-122.550436
1651323371,"2022-04-30 12:56:11",47.371349,-122.550438
1651323671,"2022-04-30 13:01:11",47.371349,-122.550439
1651323941,"2022-04-30 13:05:41",47.371347,-122.55044
1651324241,"2022-04-30 13:10:41",47.371348,-122.55044
1651324511,"2022-04-30 13:15:11",47.371348,-122.550439
1651324781,"2022-04-30 13:19:41",47.37135,-122.550438
1651325051,"2022-04-30 13:24:11",47.37135,-122.550437
1651325351,"2022-04-30 13:29:11",47.371351,-122.550437
1651325621,"2022-04-30 13:33:41",47.371353,-122.550435
1651325891,"2022-04-30 13:38:11",47.371352,-122.550435
1651326161,"2022-04-30 13:42:41",47.371351,-122.550435
1651326431,"2022-04-30 13:47:11",47.371352,-122.550435
1651326701,"2022-04-30 13:51:41",47.371352,-122.550433
1651326971,"2022-04-30 13:56:11",47.371351,-122.550435
1651327241,"2022-04-30 14:00:41",47.371353,-122.550434
1651327541,"2022-04-30 14:05:41",47.371353,-122.550434
1651327842,"2022-04-30 14:10:42",47.371354,-122.550433
1651328141,"2022-04-30 14:15:41",47.371353,-122.550434
1651328411,"2022-04-30 14:20:11",47.371354,-122.550433
1651328682,"2022-04-30 14:24:42",47.371354,-122.550432
1651328981,"2022-04-30 14:29:41",47.371354,-122.550435
1651329282,"2022-04-30 14:34:42",47.371353,-122.550435
1651329581,"2022-04-30 14:39:41",47.371353,-122.550435
1651329851,"2022-04-30 14:44:11",47.371353,-122.550435
1651330121,"2022-04-30 14:48:41",47.371353,-122.550435
1651330421,"2022-04-30 14:53:41",47.371353,-122.550436
1651330721,"2022-04-30 14:58:41",47.371353,-122.550437
1651331021,"2022-04-30 15:03:41",47.371354,-122.550436
1651331291,"2022-04-30 15:08:11",47.371354,-122.550437
1651331561,"2022-04-30 15:12:41",47.371354,-122.550437
1651331831,"2022-04-30 15:17:11",47.371354,-122.550438
1651332101,"2022-04-30 15:21:41",47.371354,-122.550438
1651332371,"2022-04-30 15:26:11",47.371354,-122.550438
1651332671,"2022-04-30 15:31:11",47.371353,-122.550438
1651332971,"2022-04-30 15:36:11",47.371353,-122.550438
1651333271,"2022-04-30 15:41:11",47.371353,-122.550438
1651333571,"2022-04-30 15:46:11",47.371352,-122.550438
1651333871,"2022-04-30 15:51:11",47.37135,-122.550439
1651334141,"2022-04-30 15:55:41",47.37135,-122.550439
1651334411,"2022-04-30 16:00:11",47.37135,-122.55044
1651334711,"2022-04-30 16:05:11",47.37135,-122.55044
1651334981,"2022-04-30 16:09:41",47.37135,-122.55044
1651335281,"2022-04-30 16:14:41",47.37135,-122.550441
1651335582,"2022-04-30 16:19:42",47.37135,-122.550441
1651335882,"2022-04-30 16:24:42",47.371349,-122.550441
1651336182,"2022-04-30 16:29:42",47.371349,-122.550441
1651336481,"2022-04-30 16:34:41",47.371349,-122.550441
1651336780,"2022-04-30 16:39:40",47.37135,-122.550441
1651337051,"2022-04-30 16:44:11",47.37135,-122.550441
1651337351,"2022-04-30 16:49:11",47.37135,-122.550441
1651337650,"2022-04-30 16:54:10",47.37135,-122.550441
1651337921,"2022-04-30 16:58:41",47.37135,-122.550442
1651338192,"2022-04-30 17:03:12",47.37135,-122.550442
1651338462,"2022-04-30 17:07:42",47.37135,-122.550442
1651338761,"2022-04-30 17:12:41",47.37135,-122.550442
1651339061,"2022-04-30 17:17:41",47.37135,-122.550442
1651339362,"2022-04-30 17:22:42",47.37135,-122.550442
1651339662,"2022-04-30 17:27:42",47.371351,-122.550442
1651339964,"2022-04-30 17:32:44",47.371351,-122.550443
1651340262,"2022-04-30 17:37:42",47.371351,-122.550443
1651340562,"2022-04-30 17:42:42",47.371351,-122.550442
1651340861,"2022-04-30 17:47:41",47.371351,-122.550442
1651341132,"2022-04-30 17:52:12",47.371351,-122.550442
1651341402,"2022-04-30 17:56:42",47.371351,-122.550442
1651341702,"2022-04-30 18:01:42",47.371351,-122.550442
1651342001,"2022-04-30 18:06:41",47.371351,-122.550442
1651342272,"2022-04-30 18:11:12",47.371352,-122.550441
1651342571,"2022-04-30 18:16:11",47.371352,-122.550441
1651342842,"2022-04-30 18:20:42",47.371352,-122.550441
1651343142,"2022-04-30 18:25:42",47.371351,-122.550442
1651343441,"2022-04-30 18:30:41",47.371352,-122.550442
1651343742,"2022-04-30 18:35:42",47.371352,-122.550442
1651344043,"2022-04-30 18:40:43",47.371352,-122.550442
1651344342,"2022-04-30 18:45:42",47.371352,-122.550442
1651344643,"2022-04-30 18:50:43",47.371352,-122.550443
1651344942,"2022-04-30 18:55:42",47.371352,-122.550443
1651345213,"2022-04-30 19:00:13",47.371352,-122.550443
1651345511,"2022-04-30 19:05:11",47.371352,-122.550443
1651345782,"2022-04-30 19:09:42",47.371352,-122.550443
1651346081,"2022-04-30 19:14:41",47.371353,-122.550443
1651346351,"2022-04-30 19:19:11",47.371353,-122.550443
1651346621,"2022-04-30 19:23:41",47.371352,-122.550443
1651346892,"2022-04-30 19:28:12",47.371353,-122.550443
1651347192,"2022-04-30 19:33:12",47.371353,-122.550444
1651347491,"2022-04-30 19:38:11",47.371352,-122.550444
1651347762,"2022-04-30 19:42:42",47.371352,-122.550444
1651348061,"2022-04-30 19:47:41",47.371353,-122.550444
1651348361,"2022-04-30 19:52:41",47.371352,-122.550443
1651348661,"2022-04-30 19:57:41",47.371353,-122.550443
1651348961,"2022-04-30 20:02:41",47.371353,-122.550443
1651349231,"2022-04-30 20:07:11",47.371353,-122.550443
1651349531,"2022-04-30 20:12:11",47.371353,-122.550444
1651349832,"2022-04-30 20:17:12",47.371353,-122.550443
1651350132,"2022-04-30 20:22:12",47.371353,-122.550443
1651350431,"2022-04-30 20:27:11",47.371353,-122.550443
1651350701,"2022-04-30 20:31:41",47.371353,-122.550443
1651350972,"2022-04-30 20:36:12",47.371353,-122.550444
1651351272,"2022-04-30 20:41:12",47.371353,-122.550444
1651351542,"2022-04-30 20:45:42",47.371353,-122.550444
1651351841,"2022-04-30 20:50:41",47.371353,-122.550444
1651352112,"2022-04-30 20:55:12",47.371353,-122.550444
1651352411,"2022-04-30 21:00:11",47.371353,-122.550444
1651352712,"2022-04-30 21:05:12",47.371354,-122.550444
1651353013,"2022-04-30 21:10:13",47.371354,-122.550444
1651353311,"2022-04-30 21:15:11",47.371354,-122.550444
1651353582,"2022-04-30 21:19:42",47.371354,-122.550444
1651353882,"2022-04-30 21:24:42",47.371354,-122.550444
1651354182,"2022-04-30 21:29:42",47.371354,-122.550444
1651354452,"2022-04-30 21:34:12",47.371354,-122.550444
1651354722,"2022-04-30 21:38:42",47.371354,-122.550445
1651355022,"2022-04-30 21:43:42",47.371354,-122.550445
1651355322,"2022-04-30 21:48:42",47.371354,-122.550445
1651355592,"2022-04-30 21:53:12",47.371354,-122.550445
1651355742,"2022-04-30 21:55:42",47.37097,-122.550844
1651355771,"2022-04-30 21:56:11",47.371276,-122.550514
1651355892,"2022-04-30 21:58:12",47.37136,-122.550512
1651356162,"2022-04-30 22:02:42",47.371343,-122.550495
1651358082,"2022-04-30 22:34:42",47.371368,-122.550459
1651358352,"2022-04-30 22:39:12",47.37137,-122.550462
1651358622,"2022-04-30 22:43:42",47.371367,-122.55047
1651358922,"2022-04-30 22:48:42",47.371366,-122.55047
1651359221,"2022-04-30 22:53:41",47.371369,-122.550468
1651359522,"2022-04-30 22:58:42",47.371373,-122.550464
1651359821,"2022-04-30 23:03:41",47.371371,-122.550467
1651360092,"2022-04-30 23:08:12",47.37137,-122.55047
1651360392,"2022-04-30 23:13:12",47.37137,-122.550472
1651360662,"2022-04-30 23:17:42",47.37137,-122.550473
1651360961,"2022-04-30 23:22:41",47.37137,-122.550473
1651361262,"2022-04-30 23:27:42",47.37137,-122.550474
1651361561,"2022-04-30 23:32:41",47.37137,-122.550474
1651361832,"2022-04-30 23:37:12",47.37137,-122.550474
1651362131,"2022-04-30 23:42:11",47.37137,-122.550473
1651362402,"2022-04-30 23:46:42",47.371369,-122.550473
1651362702,"2022-04-30 23:51:42",47.371369,-122.550473
1651363001,"2022-04-30 23:56:41",47.371369,-122.550472
1651363272,"2022-05-01 00:01:12",47.37137,-122.550472
1651363542,"2022-05-01 00:05:42",47.371369,-122.550472
1651363812,"2022-05-01 00:10:12",47.371369,-122.550471
1651364082,"2022-05-01 00:14:42",47.371369,-122.55047
1651364382,"2022-05-01 00:19:42",47.371369,-122.55047
1651364652,"2022-05-01 00:24:12",47.371369,-122.550468
1651364951,"2022-05-01 00:29:11",47.371369,-122.550468
1651365252,"2022-05-01 00:34:12",47.371368,-122.550467
1651365551,"2022-05-01 00:39:11",47.371367,-122.550467
1651365821,"2022-05-01 00:43:41",47.371367,-122.550466
1651366092,"2022-05-01 00:48:12",47.371366,-122.550466
1651366362,"2022-05-01 00:52:42",47.371366,-122.550466
1651366661,"2022-05-01 00:57:41",47.371367,-122.550465
1651366932,"2022-05-01 01:02:12",47.371367,-122.550464
1651367233,"2022-05-01 01:07:13",47.371367,-122.550465
1651367531,"2022-05-01 01:12:11",47.371367,-122.550464
1651367831,"2022-05-01 01:17:11",47.371367,-122.550464
1651368102,"2022-05-01 01:21:42",47.371367,-122.550463
1651368402,"2022-05-01 01:26:42",47.371367,-122.550464
1651368702,"2022-05-01 01:31:42",47.371367,-122.550464
1651369002,"2022-05-01 01:36:42",47.371367,-122.550464
1651369301,"2022-05-01 01:41:41",47.371367,-122.550464
1651369572,"2022-05-01 01:46:12",47.371368,-122.550464
1651369842,"2022-05-01 01:50:42",47.371368,-122.550464
1651370112,"2022-05-01 01:55:12",47.371368,-122.550465
1651370382,"2022-05-01 01:59:42",47.371368,-122.550464
1651370682,"2022-05-01 02:04:42",47.371368,-122.550463
1651370982,"2022-05-01 02:09:42",47.371368,-122.550463
1651371252,"2022-05-01 02:14:12",47.371368,-122.550463
1651371552,"2022-05-01 02:19:12",47.371368,-122.550463
1651371822,"2022-05-01 02:23:42",47.371368,-122.550464
1651372093,"2022-05-01 02:28:13",47.371368,-122.550464
1651372393,"2022-05-01 02:33:13",47.371367,-122.550464
1651372692,"2022-05-01 02:38:12",47.371368,-122.550463
1651372992,"2022-05-01 02:43:12",47.371368,-122.550464
1651373262,"2022-05-01 02:47:42",47.371368,-122.550464
1651373532,"2022-05-01 02:52:12",47.371368,-122.550464
1651373832,"2022-05-01 02:57:12",47.371368,-122.550464
1651374132,"2022-05-01 03:02:12",47.371368,-122.550464
1651374402,"2022-05-01 03:06:42",47.371368,-122.550464
1651374672,"2022-05-01 03:11:12",47.371368,-122.550464
1651374942,"2022-05-01 03:15:42",47.371368,-122.550464
1651375242,"2022-05-01 03:20:42",47.371368,-122.550464
1651375542,"2022-05-01 03:25:42",47.371368,-122.550464
1651375812,"2022-05-01 03:30:12",47.371368,-122.550464
1651376111,"2022-05-01 03:35:11",47.371367,-122.550464
1651376382,"2022-05-01 03:39:42",47.371368,-122.550464
1651376652,"2022-05-01 03:44:12",47.371368,-122.550463
1651376923,"2022-05-01 03:48:43",47.371367,-122.550463
1651377222,"2022-05-01 03:53:42",47.371367,-122.550463
1651377522,"2022-05-01 03:58:42",47.371367,-122.550463
1651377792,"2022-05-01 04:03:12",47.371367,-122.550463
1651378062,"2022-05-01 04:07:42",47.371367,-122.550463
1651378362,"2022-05-01 04:12:42",47.371368,-122.550462
1651378632,"2022-05-01 04:17:12",47.371368,-122.550462
1651378932,"2022-05-01 04:22:12",47.371368,-122.550462
1651379231,"2022-05-01 04:27:11",47.371367,-122.550462
1651379501,"2022-05-01 04:31:41",47.371367,-122.550462
1651379772,"2022-05-01 04:36:12",47.371367,-122.550461
1651380042,"2022-05-01 04:40:42",47.371367,-122.550461
1651380341,"2022-05-01 04:45:41",47.371367,-122.550461
1651380612,"2022-05-01 04:50:12",47.371367,-122.550461
1651380912,"2022-05-01 04:55:12",47.371367,-122.550461
1651381212,"2022-05-01 05:00:12",47.371367,-122.550461
1651381482,"2022-05-01 05:04:42",47.371367,-122.550461
1651381752,"2022-05-01 05:09:12",47.371367,-122.55046
1651382052,"2022-05-01 05:14:12",47.371367,-122.55046
1651382202,"2022-05-01 05:16:42",47.371367,-122.55046
1651382239,"2022-05-01 05:17:19",47.371367,-122.55046
1651384189,"2022-05-01 05:49:49",47.371367,-122.55046
1651384489,"2022-05-01 05:54:49",47.371367,-122.550459
1651384789,"2022-05-01 05:59:49",47.371367,-122.550459
1651385088,"2022-05-01 06:04:48",47.371367,-122.550459
1651385358,"2022-05-01 06:09:18",47.371367,-122.550459
1651385628,"2022-05-01 06:13:48",47.371367,-122.550459
1651385900,"2022-05-01 06:18:20",47.371367,-122.550459
1651386199,"2022-05-01 06:23:19",47.371367,-122.550459
1651386470,"2022-05-01 06:27:50",47.371367,-122.550458
1651386769,"2022-05-01 06:32:49",47.371367,-122.550459
1651387039,"2022-05-01 06:37:19",47.371367,-122.550458
1651387338,"2022-05-01 06:42:18",47.371367,-122.550458
1651387609,"2022-05-01 06:46:49",47.371367,-122.550458
1651387909,"2022-05-01 06:51:49",47.371367,-122.550458
1651388208,"2022-05-01 06:56:48",47.371368,-122.550457
1651388478,"2022-05-01 07:01:18",47.371368,-122.550457
1651388749,"2022-05-01 07:05:49",47.371367,-122.550457
1651389048,"2022-05-01 07:10:48",47.371367,-122.550457
1651389319,"2022-05-01 07:15:19",47.371367,-122.550456
