timestamp,date,latitude,longitude
1636572824,"2021-11-10 19:33:44",47.260334,-122.442419
1636592346,"2021-11-11 00:59:06",47.259905,-122.434846
1636592446,"2021-11-11 01:00:46",47.259811,-122.441977
1636592476,"2021-11-11 01:01:16",47.259756,-122.434682
1636592506,"2021-11-11 01:01:46",47.260039,-122.434695
1636592596,"2021-11-11 01:03:16",47.25971,-122.434567
1636592656,"2021-11-11 01:04:16",47.260054,-122.434324
1636592692,"2021-11-11 01:04:52",47.259663,-122.433962
1636592717,"2021-11-11 01:05:17",47.258178,-122.4334
1636592739,"2021-11-11 01:05:39",47.257413,-122.431275
1636592751,"2021-11-11 01:05:51",47.257506,-122.43034
1636592781,"2021-11-11 01:06:21",47.254887,-122.428673
1636592811,"2021-11-11 01:06:51",47.254441,-122.429519
1636592838,"2021-11-11 01:07:18",47.253613,-122.434292
1636592859,"2021-11-11 01:07:39",47.253361,-122.436677
1636592871,"2021-11-11 01:07:51",47.253656,-122.436734
1636592904,"2021-11-11 01:08:24",47.253381,-122.437
1636592921,"2021-11-11 01:08:41",47.253434,-122.437409
1636592932,"2021-11-11 01:08:52",47.253514,-122.438165
1636592952,"2021-11-11 01:09:12",47.253326,-122.438492
1636592982,"2021-11-11 01:09:42",47.253312,-122.43724
1636592991,"2021-11-11 01:09:51",47.252996,-122.443368
1636593021,"2021-11-11 01:10:21",47.252539,-122.448602
1636593044,"2021-11-11 01:10:44",47.251873,-122.451961
1636593051,"2021-11-11 01:10:51",47.251915,-122.452637
1636593061,"2021-11-11 01:11:01",47.251748,-122.453592
1636593081,"2021-11-11 01:11:21",47.251405,-122.457275
1636593112,"2021-11-11 01:11:52",47.251103,-122.462171
1636593141,"2021-11-11 01:12:21",47.253307,-122.462879
1636593171,"2021-11-11 01:12:51",47.255807,-122.463089
1636593292,"2021-11-11 01:14:52",47.255485,-122.465162
1636593303,"2021-11-11 01:15:03",47.255473,-122.465937
1636593322,"2021-11-11 01:15:22",47.255975,-122.467051
1636593344,"2021-11-11 01:15:44",47.256261,-122.467166
1636593846,"2021-11-11 01:24:06",47.256347,-122.466993
1636594514,"2021-11-11 01:35:14",47.256351,-122.46699
1637607626,"2021-11-22 19:00:26",47.256354,-122.467003
1637607639,"2021-11-22 19:00:39",47.256678,-122.467239
1637607666,"2021-11-22 19:01:06",47.25635,-122.467009
1637607696,"2021-11-22 19:01:36",47.256681,-122.467257
1637607726,"2021-11-22 19:02:06",47.256349,-122.467013
1637609968,"2021-11-22 19:39:28",47.256352,-122.467008
1637610388,"2021-11-22 19:46:28",47.256339,-122.467
1637611316,"2021-11-22 20:01:56",47.255519,-122.467189
1637611321,"2021-11-22 20:02:01",47.25627,-122.467082
1637611522,"2021-11-22 20:05:22",47.256398,-122.466875
1637611905,"2021-11-22 20:11:45",47.256388,-122.466886
1637624486,"2021-11-22 23:41:26",47.256343,-122.467027
1637624708,"2021-11-22 23:45:08",47.256187,-122.466824
1637624937,"2021-11-22 23:48:57",47.255803,-122.467191
1637625120,"2021-11-22 23:52:00",47.256341,-122.467002
1637636345,"2021-11-23 02:59:05",47.256443,-122.467183
1637637347,"2021-11-23 03:15:47",47.256358,-122.467003
1637637429,"2021-11-23 03:17:09",47.256278,-122.466561
1637637448,"2021-11-23 03:17:28",47.256358,-122.466997
1637637512,"2021-11-23 03:18:32",47.256342,-122.466567
1637637588,"2021-11-23 03:19:48",47.256351,-122.467015
1637638253,"2021-11-23 03:30:53",47.256356,-122.467005
1637639074,"2021-11-23 03:44:34",47.256352,-122.466986
1637639236,"2021-11-23 03:47:16",47.256361,-122.467056
1637639663,"2021-11-23 03:54:23",47.256363,-122.467032
1637640122,"2021-11-23 04:02:02",47.256352,-122.466991
1637641861,"2021-11-23 04:31:01",47.256647,-122.466925
1637642012,"2021-11-23 04:33:32",47.256353,-122.467005
1637642491,"2021-11-23 04:41:31",47.255909,-122.467381
1637642522,"2021-11-23 04:42:02",47.256352,-122.467005
1637643824,"2021-11-23 05:03:44",47.256359,-122.467029
1637644118,"2021-11-23 05:08:38",47.256358,-122.466995
1637645650,"2021-11-23 05:34:10",47.255868,-122.466993
1637645710,"2021-11-23 05:35:10",47.256175,-122.466625
1637645830,"2021-11-23 05:37:10",47.256292,-122.466658
1637647727,"2021-11-23 06:08:47",47.256353,-122.466994
1637648416,"2021-11-23 06:20:16",47.25635,-122.467004
1637649714,"2021-11-23 06:41:54",47.256356,-122.467009
1637651663,"2021-11-23 07:14:23",47.256354,-122.467007
1637652715,"2021-11-23 07:31:55",47.256354,-122.467
1637653567,"2021-11-23 07:46:07",47.256352,-122.466993
1637653759,"2021-11-23 07:49:19",47.256356,-122.466989
1637654554,"2021-11-23 08:02:34",47.256355,-122.467008
1637656321,"2021-11-23 08:32:01",47.256352,-122.466992
1637656783,"2021-11-23 08:39:43",47.256352,-122.467008
1637657067,"2021-11-23 08:44:27",47.256354,-122.467012
1637657356,"2021-11-23 08:49:16",47.256355,-122.466999
1637658802,"2021-11-23 09:13:22",47.256352,-122.466999
1638120976,"2021-11-28 17:36:16",47.256397,-122.467142
1638121839,"2021-11-28 17:50:39",47.256353,-122.467
1638122066,"2021-11-28 17:54:26",47.255817,-122.466739
1638122155,"2021-11-28 17:55:55",47.256356,-122.466998
1638122183,"2021-11-28 17:56:23",47.255951,-122.466765
1638122215,"2021-11-28 17:56:55",47.256354,-122.466994
1638122891,"2021-11-28 18:08:11",47.256354,-122.467001
1638124310,"2021-11-28 18:31:50",47.256093,-122.466038
1638124340,"2021-11-28 18:32:20",47.256389,-122.466655
1638124598,"2021-11-28 18:36:38",47.256363,-122.467059
1638124882,"2021-11-28 18:41:22",47.256352,-122.467003
1638125513,"2021-11-28 18:51:53",47.256354,-122.466998
1638126380,"2021-11-28 19:06:20",47.256357,-122.466996
1638126572,"2021-11-28 19:09:32",47.256749,-122.466915
1638126602,"2021-11-28 19:10:02",47.256358,-122.467003
1638126955,"2021-11-28 19:15:55",47.256444,-122.466328
1638126967,"2021-11-28 19:16:07",47.256354,-122.467005
1638127025,"2021-11-28 19:17:05",47.256433,-122.466237
1638127057,"2021-11-28 19:17:37",47.256356,-122.467013
1638127207,"2021-11-28 19:20:07",47.256357,-122.467014
1638127572,"2021-11-28 19:26:12",47.256761,-122.467095
1638127601,"2021-11-28 19:26:41",47.256371,-122.467001
1638127755,"2021-11-28 19:29:15",47.255697,-122.466737
1638127815,"2021-11-28 19:30:15",47.256005,-122.466784
1638127880,"2021-11-28 19:31:20",47.256589,-122.466897
1638127906,"2021-11-28 19:31:46",47.256304,-122.466854
1638127988,"2021-11-28 19:33:08",47.256361,-122.467024
1638130595,"2021-11-28 20:16:35",47.256397,-122.466741
1638130729,"2021-11-28 20:18:49",47.256234,-122.466666
1638130909,"2021-11-28 20:21:49",47.256234,-122.466666
1638131162,"2021-11-28 20:26:02",47.256353,-122.467025
1638131283,"2021-11-28 20:28:03",47.256353,-122.467025
1638131356,"2021-11-28 20:29:16",47.256242,-122.467388
1638131363,"2021-11-28 20:29:23",47.256338,-122.467004
1638131600,"2021-11-28 20:33:20",47.256357,-122.467014
1638132211,"2021-11-28 20:43:31",47.256354,-122.466998
1638133273,"2021-11-28 21:01:13",47.256359,-122.466998
1638133566,"2021-11-28 21:06:06",47.256352,-122.466999
1638134932,"2021-11-28 21:28:52",47.256351,-122.466988
1638135852,"2021-11-28 21:44:12",47.256354,-122.467006
1638136141,"2021-11-28 21:49:01",47.256605,-122.466662
1638136171,"2021-11-28 21:49:31",47.256352,-122.466992
1638136609,"2021-11-28 21:56:49",47.256719,-122.467087
1638136671,"2021-11-28 21:57:51",47.256412,-122.467034
1638136756,"2021-11-28 21:59:16",47.256099,-122.467177
1638136795,"2021-11-28 21:59:55",47.256354,-122.467001
1638143190,"2021-11-28 23:46:30",47.252681,-122.462998
1638143437,"2021-11-28 23:50:37",47.256355,-122.466998
1638143673,"2021-11-28 23:54:33",47.256352,-122.466993
1638143887,"2021-11-28 23:58:07",47.256225,-122.466689
1638144307,"2021-11-29 00:05:07",47.256225,-122.466689
1638144579,"2021-11-29 00:09:39",47.256368,-122.467032
1638145001,"2021-11-29 00:16:41",47.256163,-122.466703
1638145029,"2021-11-29 00:17:09",47.255757,-122.466696
1638145093,"2021-11-29 00:18:13",47.256361,-122.467058
1638147122,"2021-11-29 00:52:02",47.256354,-122.466988
1638147505,"2021-11-29 00:58:25",47.256352,-122.466993
1638147675,"2021-11-29 01:01:15",47.256578,-122.466536
1638147703,"2021-11-29 01:01:43",47.256395,-122.465385
1638147781,"2021-11-29 01:03:01",47.256353,-122.467009
1638147985,"2021-11-29 01:06:25",47.256358,-122.467005
1638148986,"2021-11-29 01:23:06",47.256358,-122.467031
1638149081,"2021-11-29 01:24:41",47.25669,-122.467051
1638149106,"2021-11-29 01:25:06",47.256352,-122.466987
1638149145,"2021-11-29 01:25:45",47.256362,-122.467409
1638149169,"2021-11-29 01:26:09",47.256504,-122.466951
1638149259,"2021-11-29 01:27:39",47.256166,-122.466916
1638149410,"2021-11-29 01:30:10",47.256444,-122.467065
1638149440,"2021-11-29 01:30:40",47.256431,-122.466537
1638149453,"2021-11-29 01:30:53",47.256353,-122.466983
1638150476,"2021-11-29 01:47:56",47.256419,-122.466861
1638150880,"2021-11-29 01:54:40",47.256351,-122.46699
1638150980,"2021-11-29 01:56:20",47.256001,-122.467011
1638151009,"2021-11-29 01:56:49",47.25635,-122.466994
1638152848,"2021-11-29 02:27:28",47.256357,-122.466996
1638153410,"2021-11-29 02:36:50",47.255234,-122.467496
1638153501,"2021-11-29 02:38:21",47.256356,-122.467
1638153593,"2021-11-29 02:39:53",47.256356,-122.467
1638154600,"2021-11-29 02:56:40",47.255561,-122.467609
1638154659,"2021-11-29 02:57:39",47.256358,-122.467056
1638163892,"2021-11-29 05:31:32",47.255306,-122.463218
1638164128,"2021-11-29 05:35:28",47.256363,-122.467072
1638164416,"2021-11-29 05:40:16",47.256072,-122.467349
1638164445,"2021-11-29 05:40:45",47.256425,-122.467147
1638164646,"2021-11-29 05:44:06",47.256357,-122.467
1638165665,"2021-11-29 06:01:05",47.256351,-122.467001
1638166382,"2021-11-29 06:13:02",47.256354,-122.466995
1638166723,"2021-11-29 06:18:43",47.257571,-122.46578
1638166742,"2021-11-29 06:19:02",47.257317,-122.466125
1638166781,"2021-11-29 06:19:41",47.256695,-122.466751
1638166792,"2021-11-29 06:19:52",47.256356,-122.466988
1638166937,"2021-11-29 06:22:17",47.256042,-122.467956
1638166953,"2021-11-29 06:22:33",47.256354,-122.466992
1638167083,"2021-11-29 06:24:43",47.256356,-122.466994
1638167826,"2021-11-29 06:37:06",47.256354,-122.466991
1638169486,"2021-11-29 07:04:46",47.256355,-122.466994
1638170276,"2021-11-29 07:17:56",47.256356,-122.466993
1638173113,"2021-11-29 08:05:13",47.256356,-122.466992
1638173517,"2021-11-29 08:11:57",47.256352,-122.466998
1638174398,"2021-11-29 08:26:38",47.256356,-122.466998
1638175338,"2021-11-29 08:42:18",47.256354,-122.466994
1638175762,"2021-11-29 08:49:22",47.256353,-122.466998
1638239440,"2021-11-30 02:30:40",47.256341,-122.46699
1638639243,"2021-12-04 17:34:03",47.256415,-122.466912
1638640602,"2021-12-04 17:56:42",47.256701,-122.466992
1638640912,"2021-12-04 18:01:52",47.256701,-122.466992
1638640970,"2021-12-04 18:02:50",47.256345,-122.46702
1638641483,"2021-12-04 18:11:23",47.256347,-122.467028
1638642446,"2021-12-04 18:27:26",47.256325,-122.4669
1638642564,"2021-12-04 18:29:24",47.256685,-122.46685
1638642579,"2021-12-04 18:29:39",47.256347,-122.467021
1638642601,"2021-12-04 18:30:01",47.256692,-122.466872
1638642691,"2021-12-04 18:31:31",47.256559,-122.466959
1638643931,"2021-12-04 18:52:11",47.256343,-122.466983
1638645767,"2021-12-04 19:22:47",47.256445,-122.466521
1638645811,"2021-12-04 19:23:31",47.256345,-122.466985
1638645816,"2021-12-04 19:23:36",47.256484,-122.466603
1638645834,"2021-12-04 19:23:54",47.256346,-122.466986
1638755334,"2021-12-06 01:48:54",47.256931,-122.454635
1638755536,"2021-12-06 01:52:16",47.256343,-122.466979
1638755780,"2021-12-06 01:56:20",47.256841,-122.46657
1638755840,"2021-12-06 01:57:20",47.256483,-122.466912
1638756239,"2021-12-06 02:03:59",47.256349,-122.46698
1638756316,"2021-12-06 02:05:16",47.256041,-122.46695
1638756347,"2021-12-06 02:05:47",47.256462,-122.466471
1638756406,"2021-12-06 02:06:46",47.256523,-122.466873
1638757114,"2021-12-06 02:18:34",47.256349,-122.467063
1638757521,"2021-12-06 02:25:21",47.256345,-122.467009
1638757717,"2021-12-06 02:28:37",47.25607,-122.466863
1638757790,"2021-12-06 02:29:50",47.25607,-122.466863
1638757836,"2021-12-06 02:30:36",47.256335,-122.467018
1638758616,"2021-12-06 02:43:36",47.256558,-122.466701
1638758624,"2021-12-06 02:43:44",47.25635,-122.466988
1638760393,"2021-12-06 03:13:13",47.256441,-122.466409
1638760443,"2021-12-06 03:14:03",47.255952,-122.466897
1638760486,"2021-12-06 03:14:46",47.256346,-122.466993
1638762218,"2021-12-06 03:43:38",47.256356,-122.467059
1638763151,"2021-12-06 03:59:11",47.256684,-122.467013
1638763188,"2021-12-06 03:59:48",47.256347,-122.467003
1638763222,"2021-12-06 04:00:22",47.256638,-122.466836
1638763251,"2021-12-06 04:00:51",47.256346,-122.467005
1638764409,"2021-12-06 04:20:09",47.256193,-122.466658
1638764692,"2021-12-06 04:24:52",47.256344,-122.466993
1638765102,"2021-12-06 04:31:42",47.256893,-122.466028
1638765103,"2021-12-06 04:31:43",47.256893,-122.466028
1638765151,"2021-12-06 04:32:31",47.256351,-122.467012
1638766089,"2021-12-06 04:48:09",47.256345,-122.466994
1638766162,"2021-12-06 04:49:22",47.256413,-122.466341
1638766235,"2021-12-06 04:50:35",47.256348,-122.466986
1638766539,"2021-12-06 04:55:39",47.256344,-122.466997
1638767227,"2021-12-06 05:07:07",47.256348,-122.467018
1638767312,"2021-12-06 05:08:32",47.256121,-122.466591
1638767345,"2021-12-06 05:09:05",47.256351,-122.467042
1638767350,"2021-12-06 05:09:10",47.256215,-122.466665
1638767480,"2021-12-06 05:11:20",47.25624,-122.466243
1638767696,"2021-12-06 05:14:56",47.256344,-122.46636
1638767738,"2021-12-06 05:15:38",47.256347,-122.467003
1638768436,"2021-12-06 05:27:16",47.256348,-122.467027
1638768876,"2021-12-06 05:34:36",47.256032,-122.466928
1638768904,"2021-12-06 05:35:04",47.256348,-122.467023
1638769716,"2021-12-06 05:48:36",47.256346,-122.466996
1638770161,"2021-12-06 05:56:01",47.256349,-122.467015
1638770351,"2021-12-06 05:59:11",47.256353,-122.467022
1638770541,"2021-12-06 06:02:21",47.256349,-122.466998
1638770873,"2021-12-06 06:07:53",47.256309,-122.466792
1638771027,"2021-12-06 06:10:27",47.256136,-122.467179
1638771170,"2021-12-06 06:12:50",47.256762,-122.466902
1638771180,"2021-12-06 06:13:00",47.256357,-122.466997
1638771749,"2021-12-06 06:22:29",47.25553,-122.467073
1638771777,"2021-12-06 06:22:57",47.255828,-122.467582
1638771806,"2021-12-06 06:23:26",47.256412,-122.467033
1638772352,"2021-12-06 06:32:32",47.256439,-122.466635
1638772442,"2021-12-06 06:34:02",47.256278,-122.467034
1638772489,"2021-12-06 06:34:49",47.256638,-122.467225
1638772506,"2021-12-06 06:35:06",47.256349,-122.466999
1638773222,"2021-12-06 06:47:02",47.256347,-122.466998
1638775039,"2021-12-06 07:17:19",47.256348,-122.466991
1638776435,"2021-12-06 07:40:35",47.256346,-122.466987
1638777368,"2021-12-06 07:56:08",47.256345,-122.466987
1638779959,"2021-12-06 08:39:19",47.256341,-122.467057
1638780062,"2021-12-06 08:41:02",47.256338,-122.466989
1638781477,"2021-12-06 09:04:37",47.256345,-122.466984
1638783381,"2021-12-06 09:36:21",47.256343,-122.466983
1638783742,"2021-12-06 09:42:22",47.256341,-122.46698
1638784104,"2021-12-06 09:48:24",47.256343,-122.466986
1638784467,"2021-12-06 09:54:27",47.256346,-122.466992
1638784588,"2021-12-06 09:56:28",47.256349,-122.467003
1638786734,"2021-12-06 10:32:14",47.256344,-122.466996
1638787096,"2021-12-06 10:38:16",47.25634,-122.467004
1638787459,"2021-12-06 10:44:19",47.256345,-122.466986
1638787820,"2021-12-06 10:50:20",47.256344,-122.466984
1638787940,"2021-12-06 10:52:20",47.256343,-122.466984
1638788667,"2021-12-06 11:04:27",47.25634,-122.466999
1638790147,"2021-12-06 11:29:07",47.256345,-122.466993
1638791145,"2021-12-06 11:45:45",47.256339,-122.46699
1638791341,"2021-12-06 11:49:01",47.256341,-122.466978
1638793111,"2021-12-06 12:18:31",47.256338,-122.466996
1638793475,"2021-12-06 12:24:35",47.25634,-122.466995
1638795492,"2021-12-06 12:58:12",47.256341,-122.466979
1638796790,"2021-12-06 13:19:50",47.256342,-122.466986
1638798577,"2021-12-06 13:49:37",47.25634,-122.467072
1638798819,"2021-12-06 13:53:39",47.256343,-122.466982
1638799211,"2021-12-06 14:00:11",47.256053,-122.467474
1638799228,"2021-12-06 14:00:28",47.256343,-122.466987
1638799674,"2021-12-06 14:07:54",47.256339,-122.466986
1638800187,"2021-12-06 14:16:27",47.256342,-122.466983
1638800717,"2021-12-06 14:25:17",47.256038,-122.467086
1638800726,"2021-12-06 14:25:26",47.256327,-122.467
1638803101,"2021-12-06 15:05:01",47.256341,-122.467005
1638803523,"2021-12-06 15:12:03",47.256347,-122.467048
1638805096,"2021-12-06 15:38:16",47.256352,-122.467707
1638805125,"2021-12-06 15:38:45",47.256341,-122.467009
1638805162,"2021-12-06 15:39:22",47.256344,-122.466526
1638828733,"2021-12-06 22:12:13",47.25634,-122.467046
1638828846,"2021-12-06 22:14:06",47.256339,-122.466986
1638829068,"2021-12-06 22:17:48",47.255848,-122.466487
1638829193,"2021-12-06 22:19:53",47.256338,-122.466982
1638829323,"2021-12-06 22:22:03",47.25641,-122.466815
1638829623,"2021-12-06 22:27:03",47.25593,-122.467075
1638829654,"2021-12-06 22:27:34",47.256335,-122.466975
1638829832,"2021-12-06 22:30:32",47.256343,-122.466997
1638829985,"2021-12-06 22:33:05",47.256343,-122.466991
1638830127,"2021-12-06 22:35:27",47.256347,-122.466998
1638831827,"2021-12-06 23:03:47",47.256345,-122.466995
1638832866,"2021-12-06 23:21:06",47.25634,-122.466986
1638834477,"2021-12-06 23:47:57",47.256342,-122.467053
1638855701,"2021-12-07 05:41:41",47.255812,-122.467148
1638855968,"2021-12-07 05:46:08",47.256353,-122.467062
1638856133,"2021-12-07 05:48:53",47.25635,-122.467068
1638856350,"2021-12-07 05:52:30",47.256341,-122.466999
1638856544,"2021-12-07 05:55:44",47.256095,-122.466127
1638856563,"2021-12-07 05:56:03",47.256347,-122.46703
1638856721,"2021-12-07 05:58:41",47.256494,-122.466276
1638856816,"2021-12-07 06:00:16",47.256354,-122.467067
1638857318,"2021-12-07 06:08:38",47.256113,-122.466802
1638857362,"2021-12-07 06:09:22",47.256354,-122.467068
1638857423,"2021-12-07 06:10:23",47.256338,-122.467072
1638858574,"2021-12-07 06:29:34",47.256343,-122.467032
1638859763,"2021-12-07 06:49:23",47.256345,-122.466983
1638861048,"2021-12-07 07:10:48",47.256345,-122.466985
1638862836,"2021-12-07 07:40:36",47.256342,-122.466989
1638863064,"2021-12-07 07:44:24",47.256342,-122.46699
1638979377,"2021-12-08 16:02:57",47.256343,-122.467002
1639181197,"2021-12-11 00:06:37",47.256372,-122.467052
1639182022,"2021-12-11 00:20:22",47.256644,-122.467207
1639182039,"2021-12-11 00:20:39",47.256361,-122.467061
1639184051,"2021-12-11 00:54:11",47.256267,-122.466811
1639184078,"2021-12-11 00:54:38",47.256635,-122.466887
1639184142,"2021-12-11 00:55:42",47.25636,-122.467045
1639184203,"2021-12-11 00:56:43",47.256362,-122.46622
1639184239,"2021-12-11 00:57:19",47.256366,-122.467044
1639184362,"2021-12-11 00:59:22",47.256366,-122.467044
1639184670,"2021-12-11 01:04:30",47.256366,-122.467057
1639184972,"2021-12-11 01:09:32",47.256366,-122.467057
1639185274,"2021-12-11 01:14:34",47.256366,-122.467057
1639185586,"2021-12-11 01:19:46",47.256366,-122.467057
1639185707,"2021-12-11 01:21:47",47.255721,-122.467733
1639185731,"2021-12-11 01:22:11",47.256366,-122.467049
1639185791,"2021-12-11 01:23:11",47.255995,-122.46753
1639185855,"2021-12-11 01:24:15",47.256365,-122.467046
1639187655,"2021-12-11 01:54:15",47.256373,-122.467049
1639188403,"2021-12-11 02:06:43",47.256368,-122.467044
1639189076,"2021-12-11 02:17:56",47.256779,-122.466123
1639189122,"2021-12-11 02:18:42",47.256366,-122.467044
1639191149,"2021-12-11 02:52:29",47.256581,-122.466611
1639191202,"2021-12-11 02:53:22",47.255992,-122.466084
1639191218,"2021-12-11 02:53:38",47.255889,-122.466642
1639191248,"2021-12-11 02:54:08",47.256366,-122.467046
1639191462,"2021-12-11 02:57:42",47.256365,-122.466807
1639191943,"2021-12-11 03:05:43",47.256472,-122.466594
1639191992,"2021-12-11 03:06:32",47.25636,-122.467052
1639200750,"2021-12-11 05:32:30",47.256211,-122.471594
1639200849,"2021-12-11 05:34:09",47.256359,-122.467044
1639201724,"2021-12-11 05:48:44",47.256364,-122.46705
1639202017,"2021-12-11 05:53:37",47.256511,-122.466171
1639202039,"2021-12-11 05:53:59",47.256371,-122.467032
1639202076,"2021-12-11 05:54:36",47.256491,-122.466151
1639202097,"2021-12-11 05:54:57",47.256367,-122.467047
1639202192,"2021-12-11 05:56:32",47.256369,-122.467047
1639202611,"2021-12-11 06:03:31",47.256366,-122.467042
1639204502,"2021-12-11 06:35:02",47.256366,-122.467047
1639204523,"2021-12-11 06:35:23",47.256209,-122.467697
1639204593,"2021-12-11 06:36:33",47.256371,-122.467048
1639204803,"2021-12-11 06:40:03",47.256371,-122.467048
1639205184,"2021-12-11 06:46:24",47.256367,-122.467049
1639205553,"2021-12-11 06:52:33",47.256357,-122.467063
1639205948,"2021-12-11 06:59:08",47.256355,-122.467064
1639206108,"2021-12-11 07:01:48",47.256355,-122.467061
1639207316,"2021-12-11 07:21:56",47.256367,-122.467049
1639207804,"2021-12-11 07:30:04",47.256354,-122.467058
1639208320,"2021-12-11 07:38:40",47.256365,-122.467047
1639209589,"2021-12-11 07:59:49",47.256368,-122.467048
1639210803,"2021-12-11 08:20:03",47.256369,-122.467051
1639212080,"2021-12-11 08:41:20",47.25637,-122.467048
1639214247,"2021-12-11 09:17:27",47.256368,-122.46705
1639215564,"2021-12-11 09:39:24",47.256355,-122.467059
1639216875,"2021-12-11 10:01:15",47.256365,-122.467045
1639217449,"2021-12-11 10:10:49",47.256366,-122.46705
1639219225,"2021-12-11 10:40:25",47.256369,-122.467051
1639219591,"2021-12-11 10:46:31",47.256363,-122.467053
1639221066,"2021-12-11 11:11:06",47.256365,-122.467049
1639221881,"2021-12-11 11:24:41",47.256365,-122.467049
1639224004,"2021-12-11 12:00:04",47.256365,-122.467047
1639224365,"2021-12-11 12:06:05",47.256366,-122.467048
1639224485,"2021-12-11 12:08:05",47.256367,-122.467049
1639224948,"2021-12-11 12:15:48",47.256366,-122.467048
1639226107,"2021-12-11 12:35:07",47.256366,-122.467045
1639227648,"2021-12-11 13:00:48",47.256369,-122.467048
1639228613,"2021-12-11 13:16:53",47.256368,-122.46705
1639229499,"2021-12-11 13:31:39",47.256354,-122.46706
1639229770,"2021-12-11 13:36:10",47.256367,-122.467046
1639230065,"2021-12-11 13:41:05",47.256367,-122.467047
1639230320,"2021-12-11 13:45:20",47.256369,-122.467052
1639232128,"2021-12-11 14:15:28",47.256366,-122.467049
1639232251,"2021-12-11 14:17:31",47.256353,-122.467061
1639232475,"2021-12-11 14:21:15",47.256353,-122.467061
1639232555,"2021-12-11 14:22:35",47.256366,-122.467049
1639233717,"2021-12-11 14:41:57",47.256369,-122.467052
1639234301,"2021-12-11 14:51:41",47.256367,-122.467053
1639235674,"2021-12-11 15:14:34",47.256816,-122.467032
1639235704,"2021-12-11 15:15:04",47.256385,-122.466653
1639235756,"2021-12-11 15:15:56",47.256344,-122.467099
1639235860,"2021-12-11 15:17:40",47.256538,-122.466747
1639235922,"2021-12-11 15:18:42",47.256369,-122.467051
1639236821,"2021-12-11 15:33:41",47.256367,-122.467047
1639237155,"2021-12-11 15:39:15",47.25637,-122.467051
1639237992,"2021-12-11 15:53:12",47.256372,-122.466624
1639238006,"2021-12-11 15:53:26",47.256421,-122.467295
1639238059,"2021-12-11 15:54:19",47.256188,-122.466963
1639238457,"2021-12-11 16:00:57",47.255569,-122.466553
1639238487,"2021-12-11 16:01:27",47.256343,-122.467047
1639238514,"2021-12-11 16:01:54",47.255652,-122.465746
1639238545,"2021-12-11 16:02:25",47.255571,-122.466401
1639238576,"2021-12-11 16:02:56",47.256471,-122.466187
1639238605,"2021-12-11 16:03:25",47.256361,-122.467032
1639238624,"2021-12-11 16:03:44",47.256471,-122.466187
1639238636,"2021-12-11 16:03:56",47.25637,-122.467049
1639238758,"2021-12-11 16:05:58",47.256367,-122.467052
1639238861,"2021-12-11 16:07:41",47.256369,-122.467049
1639239257,"2021-12-11 16:14:17",47.256226,-122.466597
1639239301,"2021-12-11 16:15:01",47.25637,-122.467049
1639240540,"2021-12-11 16:35:40",47.256366,-122.467048
1639241522,"2021-12-11 16:52:02",47.256366,-122.46705
1639241962,"2021-12-11 16:59:22",47.256363,-122.467039
1639243247,"2021-12-11 17:20:47",47.25637,-122.46705
1639243862,"2021-12-11 17:31:02",47.256361,-122.467059
1639244331,"2021-12-11 17:38:51",47.255534,-122.466768
1639244364,"2021-12-11 17:39:24",47.256364,-122.467048
1639244392,"2021-12-11 17:39:52",47.255536,-122.466918
1639244632,"2021-12-11 17:43:52",47.256356,-122.467065
1639245420,"2021-12-11 17:57:00",47.256367,-122.467051
1639246845,"2021-12-11 18:20:45",47.256368,-122.467049
1639246915,"2021-12-11 18:21:55",47.256686,-122.466891
1639246924,"2021-12-11 18:22:04",47.256356,-122.467064
1639247984,"2021-12-11 18:39:44",47.256069,-122.466614
1639248019,"2021-12-11 18:40:19",47.25637,-122.467048
1639248278,"2021-12-11 18:44:38",47.256369,-122.467052
1639248944,"2021-12-11 18:55:44",47.256358,-122.467059
1639249036,"2021-12-11 18:57:16",47.255928,-122.467664
1639249043,"2021-12-11 18:57:23",47.256369,-122.467055
1639249066,"2021-12-11 18:57:46",47.256151,-122.467579
1639249096,"2021-12-11 18:58:16",47.256371,-122.467051
1639250395,"2021-12-11 19:19:55",47.256112,-122.466596
1639250450,"2021-12-11 19:20:50",47.256362,-122.467053
1639250933,"2021-12-11 19:28:53",47.256768,-122.46688
1639250974,"2021-12-11 19:29:34",47.256371,-122.467054
1639251217,"2021-12-11 19:33:37",47.256283,-122.466648
1639251220,"2021-12-11 19:33:40",47.256302,-122.466679
1639251319,"2021-12-11 19:35:19",47.256448,-122.4674
1639251619,"2021-12-11 19:40:19",47.256354,-122.467055
1639251755,"2021-12-11 19:42:35",47.256497,-122.466774
1639251882,"2021-12-11 19:44:42",47.255903,-122.46762
1639251944,"2021-12-11 19:45:44",47.256365,-122.46705
1639252254,"2021-12-11 19:50:54",47.256353,-122.466384
1639252561,"2021-12-11 19:56:01",47.256368,-122.467049
1639252836,"2021-12-11 20:00:36",47.256371,-122.467049
1639253232,"2021-12-11 20:07:12",47.255536,-122.467838
1639253694,"2021-12-11 20:14:54",47.256365,-122.467046
1639255989,"2021-12-11 20:53:09",47.256367,-122.467054
1639256260,"2021-12-11 20:57:40",47.25672,-122.466863
1639256288,"2021-12-11 20:58:08",47.256245,-122.466962
1639256354,"2021-12-11 20:59:14",47.256373,-122.467055
1639256431,"2021-12-11 21:00:31",47.256358,-122.467057
1639257750,"2021-12-11 21:22:30",47.256367,-122.467049
1639260176,"2021-12-11 22:02:56",47.256355,-122.467065
1639260232,"2021-12-11 22:03:52",47.256557,-122.46633
1639260272,"2021-12-11 22:04:32",47.256369,-122.46705
1639260394,"2021-12-11 22:06:34",47.256367,-122.467046
1639262288,"2021-12-11 22:38:08",47.256364,-122.467046
1639262620,"2021-12-11 22:43:40",47.256359,-122.46705
1639369139,"2021-12-13 04:18:59",47.256627,-122.466821
1639369158,"2021-12-13 04:19:18",47.256366,-122.467045
1639369740,"2021-12-13 04:29:00",47.256375,-122.467055
1639369943,"2021-12-13 04:32:23",47.256365,-122.467051
1639370277,"2021-12-13 04:37:57",47.256334,-122.466372
1639370290,"2021-12-13 04:38:10",47.256371,-122.467043
1639371147,"2021-12-13 04:52:27",47.25637,-122.466375
1639371156,"2021-12-13 04:52:36",47.256369,-122.467033
1639371178,"2021-12-13 04:52:58",47.255604,-122.467079
1639371186,"2021-12-13 04:53:06",47.256367,-122.467054
1639371285,"2021-12-13 04:54:45",47.256367,-122.467044
1639371471,"2021-12-13 04:57:51",47.256578,-122.466598
1639371534,"2021-12-13 04:58:54",47.256365,-122.467045
1639371630,"2021-12-13 05:00:30",47.256198,-122.467014
1639371916,"2021-12-13 05:05:16",47.25636,-122.46705
1639372189,"2021-12-13 05:09:49",47.25636,-122.467046
1639372446,"2021-12-13 05:14:06",47.256365,-122.467047
1639374070,"2021-12-13 05:41:10",47.256362,-122.467046
1639375543,"2021-12-13 06:05:43",47.256364,-122.467054
1639378408,"2021-12-13 06:53:28",47.256368,-122.467052
1639378653,"2021-12-13 06:57:33",47.256366,-122.467046
1639379115,"2021-12-13 07:05:15",47.256366,-122.467046
1639380623,"2021-12-13 07:30:23",47.256365,-122.467052
1639380889,"2021-12-13 07:34:49",47.256366,-122.467043
1639382196,"2021-12-13 07:56:36",47.256362,-122.46705
1639383883,"2021-12-13 08:24:43",47.256356,-122.467056
1639385551,"2021-12-13 08:52:31",47.25637,-122.467049
1639387450,"2021-12-13 09:24:10",47.256354,-122.467052
1639389366,"2021-12-13 09:56:06",47.256367,-122.467047
1639389950,"2021-12-13 10:05:50",47.256366,-122.467047
1639390201,"2021-12-13 10:10:01",47.256368,-122.467047
1639391337,"2021-12-13 10:28:57",47.256364,-122.467045
1639391767,"2021-12-13 10:36:07",47.256369,-122.467042
1639394628,"2021-12-13 11:23:48",47.256368,-122.467041
1639394990,"2021-12-13 11:29:50",47.256359,-122.467045
1639395354,"2021-12-13 11:35:54",47.256354,-122.46705
1639395716,"2021-12-13 11:41:56",47.256364,-122.467045
1639395838,"2021-12-13 11:43:58",47.256351,-122.467057
1639396643,"2021-12-13 11:57:23",47.256366,-122.467045
1639398335,"2021-12-13 12:25:35",47.25636,-122.46704
1639399402,"2021-12-13 12:43:22",47.256352,-122.467056
1639400416,"2021-12-13 13:00:16",47.256145,-122.466614
1639400437,"2021-12-13 13:00:37",47.256367,-122.467044
1639401315,"2021-12-13 13:15:15",47.256369,-122.467045
1639402434,"2021-12-13 13:33:54",47.256355,-122.467061
1639403082,"2021-12-13 13:44:42",47.256374,-122.467051
1639404005,"2021-12-13 14:00:05",47.25592,-122.466916
1639404040,"2021-12-13 14:00:40",47.256369,-122.467042
1639404101,"2021-12-13 14:01:41",47.25637,-122.467042
1639405717,"2021-12-13 14:28:37",47.256367,-122.467047
1639406106,"2021-12-13 14:35:06",47.256025,-122.467572
1639406123,"2021-12-13 14:35:23",47.256364,-122.467044
1639406275,"2021-12-13 14:37:55",47.256364,-122.467044
1639407609,"2021-12-13 15:00:09",47.256195,-122.466656
1639407623,"2021-12-13 15:00:23",47.256364,-122.467049
1639407783,"2021-12-13 15:03:03",47.256366,-122.467049
1639407896,"2021-12-13 15:04:56",47.256636,-122.466874
1639407956,"2021-12-13 15:05:56",47.256357,-122.467055
1639408017,"2021-12-13 15:06:57",47.256357,-122.46705
1639408578,"2021-12-13 15:16:18",47.256834,-122.466955
1639408594,"2021-12-13 15:16:34",47.256349,-122.467053
1639408806,"2021-12-13 15:20:06",47.256346,-122.467053
1639409812,"2021-12-13 15:36:52",47.256535,-122.466547
1639409995,"2021-12-13 15:39:55",47.25636,-122.467039
1639410143,"2021-12-13 15:42:23",47.255761,-122.46669
1639416990,"2021-12-13 17:36:30",47.256161,-122.467107
1639417239,"2021-12-13 17:40:39",47.256366,-122.467051
1639417569,"2021-12-13 17:46:09",47.256366,-122.467046
1639418288,"2021-12-13 17:58:08",47.256364,-122.467042
1639418341,"2021-12-13 17:59:01",47.256364,-122.467048
1639418466,"2021-12-13 18:01:06",47.256362,-122.46705
1639419685,"2021-12-13 18:21:25",47.256779,-122.466962
1639419716,"2021-12-13 18:21:56",47.256363,-122.46705
1639420618,"2021-12-13 18:36:58",47.256363,-122.467053
1639420912,"2021-12-13 18:41:52",47.256373,-122.467053
1639421479,"2021-12-13 18:51:19",47.25602,-122.466274
1639421484,"2021-12-13 18:51:24",47.255624,-122.465343
1639421514,"2021-12-13 18:51:54",47.256366,-122.467047
1639422062,"2021-12-13 19:01:02",47.256371,-122.467049
1639422522,"2021-12-13 19:08:42",47.256369,-122.467054
1639423895,"2021-12-13 19:31:35",47.25657,-122.466787
1639423915,"2021-12-13 19:31:55",47.256349,-122.467055
1639424624,"2021-12-13 19:43:44",47.256366,-122.467046
1639425258,"2021-12-13 19:54:18",47.25636,-122.467047
1639425385,"2021-12-13 19:56:25",47.256356,-122.46706
1639425616,"2021-12-13 20:00:16",47.256364,-122.467052
1639425632,"2021-12-13 20:00:32",47.256263,-122.466588
1639425658,"2021-12-13 20:00:58",47.256369,-122.467051
1639425753,"2021-12-13 20:02:33",47.256555,-122.466718
1639425882,"2021-12-13 20:04:42",47.256362,-122.467066
1639425905,"2021-12-13 20:05:05",47.256407,-122.466597
1639425913,"2021-12-13 20:05:13",47.256363,-122.467055
1639426924,"2021-12-13 20:22:04",47.256368,-122.46705
1639427252,"2021-12-13 20:27:32",47.256369,-122.467053
1639427392,"2021-12-13 20:29:52",47.256369,-122.467052
1639427880,"2021-12-13 20:38:00",47.256369,-122.467048
1639428729,"2021-12-13 20:52:09",47.256363,-122.467042
1639430243,"2021-12-13 21:17:23",47.256132,-122.4661
1639430270,"2021-12-13 21:17:50",47.256368,-122.467051
1639431954,"2021-12-13 21:45:54",47.256679,-122.46701
1639431983,"2021-12-13 21:46:23",47.256374,-122.467049
1639433928,"2021-12-13 22:18:48",47.256365,-122.467051
1639434245,"2021-12-13 22:24:05",47.256365,-122.467051
1639434334,"2021-12-13 22:25:34",47.255571,-122.467581
1639434361,"2021-12-13 22:26:01",47.256349,-122.467057
1639434571,"2021-12-13 22:29:31",47.256349,-122.467057
1639434872,"2021-12-13 22:34:32",47.256358,-122.467041
1639435113,"2021-12-13 22:38:33",47.256276,-122.467439
1639435118,"2021-12-13 22:38:38",47.256054,-122.467054
1639435143,"2021-12-13 22:39:03",47.256364,-122.467059
1639435192,"2021-12-13 22:39:52",47.255944,-122.466707
1639435219,"2021-12-13 22:40:19",47.256504,-122.466864
1639435309,"2021-12-13 22:41:49",47.256352,-122.467312
1639435913,"2021-12-13 22:51:53",47.256369,-122.467048
1639436654,"2021-12-13 23:04:14",47.257056,-122.466381
1639436667,"2021-12-13 23:04:27",47.256761,-122.466762
1639436778,"2021-12-13 23:06:18",47.256369,-122.467048
1639437212,"2021-12-13 23:13:32",47.256283,-122.466646
1639437272,"2021-12-13 23:14:32",47.255596,-122.466368
1639437331,"2021-12-13 23:15:31",47.256338,-122.46685
1639437753,"2021-12-13 23:22:33",47.256362,-122.466835
1639438170,"2021-12-13 23:29:30",47.256363,-122.467041
1639438531,"2021-12-13 23:35:31",47.256367,-122.46705
1639439420,"2021-12-13 23:50:20",47.256367,-122.467048
1639440623,"2021-12-14 00:10:23",47.256672,-122.466997
1639440644,"2021-12-14 00:10:44",47.256715,-122.467484
1639440675,"2021-12-14 00:11:15",47.256366,-122.467048
1639441401,"2021-12-14 00:23:21",47.255986,-122.46728
1639441430,"2021-12-14 00:23:50",47.25642,-122.467475
1639441495,"2021-12-14 00:24:55",47.256374,-122.467049
1639441562,"2021-12-14 00:26:02",47.256374,-122.467049
1639441958,"2021-12-14 00:32:38",47.256127,-122.466842
1639441981,"2021-12-14 00:33:01",47.256368,-122.467046
1639450362,"2021-12-14 02:52:42",47.256346,-122.467076
1639450463,"2021-12-14 02:54:23",47.255686,-122.466958
1639450478,"2021-12-14 02:54:38",47.256364,-122.467052
1639450744,"2021-12-14 02:59:04",47.256029,-122.467269
1639450752,"2021-12-14 02:59:12",47.256358,-122.467055
1639450803,"2021-12-14 03:00:03",47.256059,-122.467362
1639450850,"2021-12-14 03:00:50",47.256363,-122.467051
1639451720,"2021-12-14 03:15:20",47.256763,-122.467175
1639451743,"2021-12-14 03:15:43",47.25642,-122.467082
1639451967,"2021-12-14 03:19:27",47.255769,-122.466577
1639451992,"2021-12-14 03:19:52",47.256366,-122.467045
1639452384,"2021-12-14 03:26:24",47.256278,-122.46626
1639452394,"2021-12-14 03:26:34",47.256237,-122.466724
1639452704,"2021-12-14 03:31:44",47.257297,-122.466865
1639452709,"2021-12-14 03:31:49",47.256832,-122.46712
1639452784,"2021-12-14 03:33:04",47.256367,-122.467042
1639453244,"2021-12-14 03:40:44",47.257429,-122.467879
1639453272,"2021-12-14 03:41:12",47.256358,-122.467045
1639453334,"2021-12-14 03:42:14",47.256052,-122.466191
1639453365,"2021-12-14 03:42:45",47.256363,-122.467046
1639453753,"2021-12-14 03:49:13",47.256608,-122.466819
1639453766,"2021-12-14 03:49:26",47.256357,-122.467049
1639453851,"2021-12-14 03:50:51",47.256766,-122.466701
1639453887,"2021-12-14 03:51:27",47.256401,-122.466585
1639453985,"2021-12-14 03:53:05",47.256356,-122.46704
1639454004,"2021-12-14 03:53:24",47.256186,-122.466516
1639454016,"2021-12-14 03:53:36",47.256362,-122.467031
1639454034,"2021-12-14 03:53:54",47.256147,-122.46673
1639454047,"2021-12-14 03:54:07",47.25636,-122.467037
1639454064,"2021-12-14 03:54:24",47.256147,-122.466711
1639454078,"2021-12-14 03:54:38",47.256363,-122.467045
1639455583,"2021-12-14 04:19:43",47.256366,-122.467053
1639455765,"2021-12-14 04:22:45",47.256335,-122.466811
1639456701,"2021-12-14 04:38:21",47.256368,-122.467049
1639457511,"2021-12-14 04:51:51",47.256549,-122.466318
1639457540,"2021-12-14 04:52:20",47.256324,-122.467095
1639457664,"2021-12-14 04:54:24",47.256574,-122.466867
1639457691,"2021-12-14 04:54:51",47.256231,-122.467244
1639459735,"2021-12-14 05:28:55",47.256303,-122.466952
1639459918,"2021-12-14 05:31:58",47.255933,-122.467601
1639459948,"2021-12-14 05:32:28",47.256215,-122.466932
1639459978,"2021-12-14 05:32:58",47.256443,-122.467202
1639460038,"2021-12-14 05:33:58",47.256217,-122.466963
1639460068,"2021-12-14 05:34:28",47.256561,-122.46685
1639460489,"2021-12-14 05:41:29",47.256368,-122.46705
1639460532,"2021-12-14 05:42:12",47.256118,-122.467341
1639460555,"2021-12-14 05:42:35",47.25635,-122.467069
1639460738,"2021-12-14 05:45:38",47.256337,-122.467004
1639461715,"2021-12-14 06:01:55",47.256369,-122.467048
1639462509,"2021-12-14 06:15:09",47.256868,-122.466879
1639462524,"2021-12-14 06:15:24",47.256375,-122.467044
1639462655,"2021-12-14 06:17:35",47.256367,-122.467046
1639464275,"2021-12-14 06:44:35",47.256359,-122.467048
1639464576,"2021-12-14 06:49:36",47.256365,-122.467049
1639464811,"2021-12-14 06:53:31",47.256366,-122.467048
1639465632,"2021-12-14 07:07:12",47.256367,-122.467051
1639466188,"2021-12-14 07:16:28",47.25636,-122.467051
1639467214,"2021-12-14 07:33:34",47.256364,-122.46705
1639467741,"2021-12-14 07:42:21",47.256366,-122.467043
1639468415,"2021-12-14 07:53:35",47.256359,-122.467049
1639469481,"2021-12-14 08:11:21",47.256363,-122.46705
1639471123,"2021-12-14 08:38:43",47.256363,-122.467049
1639473732,"2021-12-14 09:22:12",47.25637,-122.467049
1639474094,"2021-12-14 09:28:14",47.256363,-122.46705
1639474460,"2021-12-14 09:34:20",47.25637,-122.467049
1639474832,"2021-12-14 09:40:32",47.256365,-122.467048
1639475195,"2021-12-14 09:46:35",47.256364,-122.467052
1639475555,"2021-12-14 09:52:35",47.256366,-122.467049
1639475916,"2021-12-14 09:58:36",47.256358,-122.467051
1639477880,"2021-12-14 10:31:20",47.256363,-122.467055
1639478001,"2021-12-14 10:33:21",47.256363,-122.467052
1639478499,"2021-12-14 10:41:39",47.25637,-122.467046
1639478935,"2021-12-14 10:48:55",47.256371,-122.467043
1639480325,"2021-12-14 11:12:05",47.256367,-122.467055
1639481866,"2021-12-14 11:37:46",47.256353,-122.467042
1639483714,"2021-12-14 12:08:34",47.256366,-122.467045
1639484074,"2021-12-14 12:14:34",47.256368,-122.467046
1639484436,"2021-12-14 12:20:36",47.256366,-122.467044
1639484798,"2021-12-14 12:26:38",47.256369,-122.467051
1639485161,"2021-12-14 12:32:41",47.256365,-122.46705
1639485526,"2021-12-14 12:38:46",47.256369,-122.467044
1639485646,"2021-12-14 12:40:46",47.256361,-122.467042
1639487673,"2021-12-14 13:14:33",47.256358,-122.467044
1639488133,"2021-12-14 13:22:13",47.256362,-122.467052
1639489142,"2021-12-14 13:39:02",47.256368,-122.467044
1639489801,"2021-12-14 13:50:01",47.25636,-122.467041
1639491412,"2021-12-14 14:16:52",47.256359,-122.467053
1639491838,"2021-12-14 14:23:58",47.256363,-122.467043
1639492838,"2021-12-14 14:40:38",47.256779,-122.46775
1639492869,"2021-12-14 14:41:09",47.256364,-122.467046
1639493169,"2021-12-14 14:46:09",47.256364,-122.467045
1639496239,"2021-12-14 15:37:19",47.256472,-122.46659
1639496276,"2021-12-14 15:37:56",47.256371,-122.46705
1639496617,"2021-12-14 15:43:37",47.25637,-122.467048
1639496666,"2021-12-14 15:44:26",47.256056,-122.46698
1639496693,"2021-12-14 15:44:53",47.25546,-122.466859
1639496725,"2021-12-14 15:45:25",47.256227,-122.466877
1639497596,"2021-12-14 15:59:56",47.256311,-122.46775
1639497655,"2021-12-14 16:00:55",47.256408,-122.467344
1639498063,"2021-12-14 16:07:43",47.256428,-122.466776
1639498828,"2021-12-14 16:20:28",47.256089,-122.466966
1639499072,"2021-12-14 16:24:32",47.256356,-122.467053
1639499102,"2021-12-14 16:25:02",47.256647,-122.466381
1639499132,"2021-12-14 16:25:32",47.25635,-122.46706
1639499883,"2021-12-14 16:38:03",47.256354,-122.467053
1639499955,"2021-12-14 16:39:15",47.25617,-122.466575
1639499972,"2021-12-14 16:39:32",47.256425,-122.466831
1639500977,"2021-12-14 16:56:17",47.256367,-122.467046
1639501156,"2021-12-14 16:59:16",47.255616,-122.467275
1639501187,"2021-12-14 16:59:47",47.256369,-122.467054
1639501647,"2021-12-14 17:07:27",47.256355,-122.467055
1639501780,"2021-12-14 17:09:40",47.256244,-122.466744
1639501895,"2021-12-14 17:11:35",47.256359,-122.46705
1639502070,"2021-12-14 17:14:30",47.255868,-122.466842
1639502076,"2021-12-14 17:14:36",47.256361,-122.467048
1639502102,"2021-12-14 17:15:02",47.256008,-122.46739
1639502132,"2021-12-14 17:15:32",47.256364,-122.467046
1639515445,"2021-12-14 20:57:25",47.256367,-122.467051
1639515531,"2021-12-14 20:58:51",47.256368,-122.467042
1639515943,"2021-12-14 21:05:43",47.256362,-122.467034
1639516356,"2021-12-14 21:12:36",47.256371,-122.467043
1639516420,"2021-12-14 21:13:40",47.256353,-122.467063
1639522530,"2021-12-14 22:55:30",47.254914,-122.46817
1639522629,"2021-12-14 22:57:09",47.256366,-122.467048
1639522864,"2021-12-14 23:01:04",47.256362,-122.467048
1639524219,"2021-12-14 23:23:39",47.256364,-122.467048
1639524338,"2021-12-14 23:25:38",47.256655,-122.466644
1639524439,"2021-12-14 23:27:19",47.256034,-122.466544
1639524498,"2021-12-14 23:28:18",47.256354,-122.467062
1639546865,"2021-12-15 05:41:05",47.255469,-122.463623
1639547072,"2021-12-15 05:44:32",47.256362,-122.467052
1639547181,"2021-12-15 05:46:21",47.256108,-122.466686
1639547187,"2021-12-15 05:46:27",47.256508,-122.466523
1639547213,"2021-12-15 05:46:53",47.257086,-122.466659
1639547273,"2021-12-15 05:47:53",47.256368,-122.467049
1639547399,"2021-12-15 05:49:59",47.256289,-122.467992
1639547420,"2021-12-15 05:50:20",47.256367,-122.467048
1639547547,"2021-12-15 05:52:27",47.256285,-122.466286
1639547565,"2021-12-15 05:52:45",47.256368,-122.467048
1639547596,"2021-12-15 05:53:16",47.256003,-122.46676
1639547627,"2021-12-15 05:53:47",47.256402,-122.466992
1639547993,"2021-12-15 05:59:53",47.256368,-122.467049
1639548861,"2021-12-15 06:14:21",47.256312,-122.465933
1639548943,"2021-12-15 06:15:43",47.256366,-122.46705
1639549060,"2021-12-15 06:17:40",47.256312,-122.466449
1639549068,"2021-12-15 06:17:48",47.256366,-122.467044
1639549503,"2021-12-15 06:25:03",47.256366,-122.467045
1639549853,"2021-12-15 06:30:53",47.256354,-122.467063
1639551728,"2021-12-15 07:02:08",47.256365,-122.467051
1639552914,"2021-12-15 07:21:54",47.256368,-122.467051
1639627857,"2021-12-16 04:10:57",47.256331,-122.467055
1639718514,"2021-12-17 05:21:54",47.25653,-122.467446
1639718543,"2021-12-17 05:22:23",47.256332,-122.467049
1639719254,"2021-12-17 05:34:14",47.256104,-122.466487
1639719278,"2021-12-17 05:34:38",47.256277,-122.466821
1639720090,"2021-12-17 05:48:10",47.256331,-122.467055
1639720674,"2021-12-17 05:57:54",47.256335,-122.467059
1639721178,"2021-12-17 06:06:18",47.256335,-122.467062
1639722047,"2021-12-17 06:20:47",47.256338,-122.467057
1639722837,"2021-12-17 06:33:57",47.256336,-122.46706
1639723329,"2021-12-17 06:42:09",47.256341,-122.467061
1639724714,"2021-12-17 07:05:14",47.256338,-122.467058
1639725055,"2021-12-17 07:10:55",47.256331,-122.467039
1639725626,"2021-12-17 07:20:26",47.256338,-122.467058
1639726043,"2021-12-17 07:27:23",47.256338,-122.467059
1639726248,"2021-12-17 07:30:48",47.256328,-122.467048
1639727922,"2021-12-17 07:58:42",47.256337,-122.467062
1639730545,"2021-12-17 08:42:25",47.256335,-122.467061
1639730907,"2021-12-17 08:48:27",47.256337,-122.467067
1639731273,"2021-12-17 08:54:33",47.256323,-122.467045
1639731636,"2021-12-17 09:00:36",47.256329,-122.467051
1639732000,"2021-12-17 09:06:40",47.256329,-122.467052
1639733810,"2021-12-17 09:36:50",47.25633,-122.467043
1639734173,"2021-12-17 09:42:53",47.256331,-122.467061
1639734535,"2021-12-17 09:48:55",47.256327,-122.467056
1639734897,"2021-12-17 09:54:57",47.25633,-122.467056
1639735262,"2021-12-17 10:01:02",47.25633,-122.467056
1639737775,"2021-12-17 10:42:55",47.256331,-122.467051
1639738973,"2021-12-17 11:02:53",47.256331,-122.46705
1639740194,"2021-12-17 11:23:14",47.256334,-122.467056
1639741965,"2021-12-17 11:52:45",47.256343,-122.467061
1639742150,"2021-12-17 11:55:50",47.25633,-122.467055
1639742626,"2021-12-17 12:03:46",47.256335,-122.46706
1639743263,"2021-12-17 12:14:23",47.256335,-122.467054
1639743882,"2021-12-17 12:24:42",47.256337,-122.467056
1639745343,"2021-12-17 12:49:03",47.256328,-122.467041
1639747872,"2021-12-17 13:31:12",47.256329,-122.467052
1639748197,"2021-12-17 13:36:37",47.256338,-122.46706
1639748977,"2021-12-17 13:49:37",47.256335,-122.467062
1639750399,"2021-12-17 14:13:19",47.256336,-122.467059
1639751437,"2021-12-17 14:30:37",47.256524,-122.466007
1639751467,"2021-12-17 14:31:07",47.256338,-122.467057
1639751769,"2021-12-17 14:36:09",47.25634,-122.467061
1639751977,"2021-12-17 14:39:37",47.256333,-122.467061
1639752308,"2021-12-17 14:45:08",47.256335,-122.467046
1639754330,"2021-12-17 15:18:50",47.256338,-122.467059
1639754692,"2021-12-17 15:24:52",47.256337,-122.467056
1639755008,"2021-12-17 15:30:08",47.255535,-122.467688
1639755031,"2021-12-17 15:30:31",47.256295,-122.467077
1639755355,"2021-12-17 15:35:55",47.256327,-122.46704
1639755475,"2021-12-17 15:37:55",47.256547,-122.466914
1639755516,"2021-12-17 15:38:36",47.256235,-122.467031
1639755640,"2021-12-17 15:40:40",47.256325,-122.467037
1639756772,"2021-12-17 15:59:32",47.25596,-122.466977
1639756803,"2021-12-17 16:00:03",47.256328,-122.467049
1639757028,"2021-12-17 16:03:48",47.25631,-122.466995
1639757093,"2021-12-17 16:04:53",47.256606,-122.467325
1639757114,"2021-12-17 16:05:14",47.256332,-122.467052
1639757933,"2021-12-17 16:18:53",47.256315,-122.466962
1639758192,"2021-12-17 16:23:12",47.256392,-122.466855
1639758471,"2021-12-17 16:27:51",47.256333,-122.467049
1639758762,"2021-12-17 16:32:42",47.256331,-122.467037
1639777089,"2021-12-17 21:38:09",47.255938,-122.46172
1639777371,"2021-12-17 21:42:51",47.256333,-122.46702
1639777962,"2021-12-17 21:52:42",47.256532,-122.467584
1639777979,"2021-12-17 21:52:59",47.256455,-122.467187
1639778620,"2021-12-17 22:03:40",47.256243,-122.466769
1639780367,"2021-12-17 22:32:47",47.256335,-122.467055
1639780504,"2021-12-17 22:35:04",47.256333,-122.467056
1639781730,"2021-12-17 22:55:30",47.256343,-122.467067
1639782308,"2021-12-17 23:05:08",47.256343,-122.467067
1639783345,"2021-12-17 23:22:25",47.256332,-122.467059
1639784181,"2021-12-17 23:36:21",47.254662,-122.474333
1639784187,"2021-12-17 23:36:27",47.256333,-122.467051
1639784824,"2021-12-17 23:47:04",47.256333,-122.467051
1639785102,"2021-12-17 23:51:42",47.256333,-122.467048
1639785171,"2021-12-17 23:52:51",47.255777,-122.467099
1639785199,"2021-12-17 23:53:19",47.256333,-122.467056
1639785710,"2021-12-18 00:01:50",47.256335,-122.467057
1639791601,"2021-12-18 01:40:01",47.256255,-122.46721
1639791822,"2021-12-18 01:43:42",47.256326,-122.467053
1639791835,"2021-12-18 01:43:55",47.255978,-122.466834
1639791843,"2021-12-18 01:44:03",47.256303,-122.467022
1639792081,"2021-12-18 01:48:01",47.256329,-122.467054
1639792421,"2021-12-18 01:53:41",47.256024,-122.466616
1639792479,"2021-12-18 01:54:39",47.256332,-122.467062
1639792620,"2021-12-18 01:57:00",47.256264,-122.466617
1639792630,"2021-12-18 01:57:10",47.256327,-122.467005
1639792765,"2021-12-18 01:59:25",47.256009,-122.466866
1639792816,"2021-12-18 02:00:16",47.256338,-122.467051
1639793021,"2021-12-18 02:03:41",47.256654,-122.466742
1639793129,"2021-12-18 02:05:29",47.256341,-122.467067
1639793808,"2021-12-18 02:16:48",47.256689,-122.467231
1639793888,"2021-12-18 02:18:08",47.256326,-122.46702
1639793965,"2021-12-18 02:19:25",47.25633,-122.467006
1639795472,"2021-12-18 02:44:32",47.256331,-122.467058
1639795773,"2021-12-18 02:49:33",47.256333,-122.467058
1639796559,"2021-12-18 03:02:39",47.256701,-122.467124
1639796593,"2021-12-18 03:03:13",47.256328,-122.467056
1639796611,"2021-12-18 03:03:31",47.256614,-122.467135
1639796653,"2021-12-18 03:04:13",47.256336,-122.467055
1639796725,"2021-12-18 03:05:25",47.256328,-122.467067
1639796770,"2021-12-18 03:06:10",47.256471,-122.466572
1639796795,"2021-12-18 03:06:35",47.256335,-122.467056
1639796878,"2021-12-18 03:07:58",47.256394,-122.46654
1639796883,"2021-12-18 03:08:03",47.256322,-122.467022
1639798409,"2021-12-18 03:33:29",47.256336,-122.467055
1639798731,"2021-12-18 03:38:51",47.256329,-122.466993
1639799151,"2021-12-18 03:45:51",47.256608,-122.466342
1639799221,"2021-12-18 03:47:01",47.256337,-122.467056
1639861652,"2021-12-18 21:07:32",47.256339,-122.46706
1639862010,"2021-12-18 21:13:30",47.256338,-122.467052
1639862229,"2021-12-18 21:17:09",47.256331,-122.467039
1639863043,"2021-12-18 21:30:43",47.256326,-122.467057
1639863145,"2021-12-18 21:32:25",47.256245,-122.46694
1639863951,"2021-12-18 21:45:51",47.256324,-122.467026
1639864090,"2021-12-18 21:48:10",47.256264,-122.466937
1639864255,"2021-12-18 21:50:55",47.256622,-122.466372
1639864315,"2021-12-18 21:51:55",47.256261,-122.466742
1639864371,"2021-12-18 21:52:51",47.256569,-122.466716
1639864406,"2021-12-18 21:53:26",47.256324,-122.467026
1639864959,"2021-12-18 22:02:39",47.256335,-122.46706
1639865022,"2021-12-18 22:03:42",47.256052,-122.467049
1639865112,"2021-12-18 22:05:12",47.256371,-122.467059
1639865203,"2021-12-18 22:06:43",47.256091,-122.467213
1639865263,"2021-12-18 22:07:43",47.256146,-122.467311
1639865356,"2021-12-18 22:09:16",47.25553,-122.468917
1639865904,"2021-12-18 22:18:24",47.256212,-122.467118
1639865933,"2021-12-18 22:18:53",47.256076,-122.466375
1639865946,"2021-12-18 22:19:06",47.256358,-122.467025
1639866430,"2021-12-18 22:27:10",47.256684,-122.466666
1639866460,"2021-12-18 22:27:40",47.256358,-122.467026
1639868682,"2021-12-18 23:04:42",47.256337,-122.467066
1639869044,"2021-12-18 23:10:44",47.256322,-122.467045
1639869208,"2021-12-18 23:13:28",47.255528,-122.467282
1639869289,"2021-12-18 23:14:49",47.256103,-122.466944
1639869298,"2021-12-18 23:14:58",47.256321,-122.46655
1639869323,"2021-12-18 23:15:23",47.256333,-122.467054
1639869392,"2021-12-18 23:16:32",47.256349,-122.467045
1639869696,"2021-12-18 23:21:36",47.256354,-122.467025
1639871184,"2021-12-18 23:46:24",47.256387,-122.466976
1639871303,"2021-12-18 23:48:23",47.256331,-122.467062
1639872050,"2021-12-19 00:00:50",47.256272,-122.467161
1639872192,"2021-12-19 00:03:12",47.256749,-122.466833
1639872237,"2021-12-19 00:03:57",47.256351,-122.467071
1639873198,"2021-12-19 00:19:58",47.256327,-122.46706
1639875646,"2021-12-19 01:00:46",47.255832,-122.467026
1639875655,"2021-12-19 01:00:55",47.256251,-122.467041
1639875656,"2021-12-19 01:00:56",47.256269,-122.46704
1639875894,"2021-12-19 01:04:54",47.256587,-122.466823
1639875937,"2021-12-19 01:05:37",47.256199,-122.467083
1639875981,"2021-12-19 01:06:21",47.256192,-122.466663
1639876038,"2021-12-19 01:07:18",47.25633,-122.467055
1639876474,"2021-12-19 01:14:34",47.256192,-122.466795
1639876598,"2021-12-19 01:16:38",47.256162,-122.46751
1639876628,"2021-12-19 01:17:08",47.256335,-122.467061
1639876718,"2021-12-19 01:18:38",47.256229,-122.466334
1639876768,"2021-12-19 01:19:28",47.256036,-122.466714
1639876785,"2021-12-19 01:19:45",47.256327,-122.46705
1639876940,"2021-12-19 01:22:20",47.256167,-122.467046
1639879161,"2021-12-19 01:59:21",47.257899,-122.466263
1639879310,"2021-12-19 02:01:50",47.256332,-122.467046
1639880795,"2021-12-19 02:26:35",47.256331,-122.467054
1639882501,"2021-12-19 02:55:01",47.255958,-122.467031
1639882519,"2021-12-19 02:55:19",47.25551,-122.466954
1639882580,"2021-12-19 02:56:20",47.256327,-122.467048
1639883301,"2021-12-19 03:08:21",47.256338,-122.467062
1639884013,"2021-12-19 03:20:13",47.255838,-122.466858
1639884176,"2021-12-19 03:22:56",47.256325,-122.467055
1639884195,"2021-12-19 03:23:15",47.255885,-122.466925
1639884206,"2021-12-19 03:23:26",47.256334,-122.467065
1639884225,"2021-12-19 03:23:45",47.25589,-122.466921
1639884236,"2021-12-19 03:23:56",47.256333,-122.46706
1639885718,"2021-12-19 03:48:38",47.256335,-122.467058
1639886293,"2021-12-19 03:58:13",47.255549,-122.467202
1639886361,"2021-12-19 03:59:21",47.256334,-122.46704
1639886973,"2021-12-19 04:09:33",47.256334,-122.467053
1639888127,"2021-12-19 04:28:47",47.25636,-122.466911
1639888272,"2021-12-19 04:31:12",47.256335,-122.467055
1639890169,"2021-12-19 05:02:49",47.256333,-122.467058
1639890280,"2021-12-19 05:04:40",47.25622,-122.467435
1639890284,"2021-12-19 05:04:44",47.256356,-122.467044
1639891225,"2021-12-19 05:20:25",47.255539,-122.46912
1639891342,"2021-12-19 05:22:22",47.255539,-122.46912
1639891933,"2021-12-19 05:32:13",47.256339,-122.467061
1639892283,"2021-12-19 05:38:03",47.256638,-122.467168
1639892371,"2021-12-19 05:39:31",47.256333,-122.467053
1639893033,"2021-12-19 05:50:33",47.256332,-122.467059
1639893093,"2021-12-19 05:51:33",47.256579,-122.466711
1639893111,"2021-12-19 05:51:51",47.256341,-122.467058
1639893137,"2021-12-19 05:52:17",47.25671,-122.466901
1639893710,"2021-12-19 06:01:50",47.256328,-122.467062
1639895803,"2021-12-19 06:36:43",47.256328,-122.467055
1639896486,"2021-12-19 06:48:06",47.256328,-122.467055
1639897989,"2021-12-19 07:13:09",47.256337,-122.467056
1639899470,"2021-12-19 07:37:50",47.256337,-122.467063
1639899791,"2021-12-19 07:43:11",47.256326,-122.467036
1639900777,"2021-12-19 07:59:37",47.256334,-122.467055
1639901182,"2021-12-19 08:06:22",47.25633,-122.467047
1639901935,"2021-12-19 08:18:55",47.256336,-122.467051
1639902397,"2021-12-19 08:26:37",47.25634,-122.467063
1639903548,"2021-12-19 08:45:48",47.256327,-122.467047
1639903744,"2021-12-19 08:49:04",47.256324,-122.467043
1639904541,"2021-12-19 09:02:21",47.256337,-122.467055
1639905783,"2021-12-19 09:23:03",47.256324,-122.467026
1639906150,"2021-12-19 09:29:10",47.256333,-122.467053
1639906838,"2021-12-19 09:40:38",47.256329,-122.467046
1639908231,"2021-12-19 10:03:51",47.256337,-122.46706
1639908744,"2021-12-19 10:12:24",47.25633,-122.467043
1639908968,"2021-12-19 10:16:08",47.256323,-122.467037
1639909937,"2021-12-19 10:32:17",47.256335,-122.46706
1639912882,"2021-12-19 11:21:22",47.256335,-122.467059
1639914664,"2021-12-19 11:51:04",47.256334,-122.467055
1639916422,"2021-12-19 12:20:22",47.256329,-122.467049
1639916784,"2021-12-19 12:26:24",47.256336,-122.467052
1639918907,"2021-12-19 13:01:47",47.256332,-122.467043
1639920707,"2021-12-19 13:31:47",47.256335,-122.467057
1639921070,"2021-12-19 13:37:50",47.256334,-122.467056
1639921435,"2021-12-19 13:43:55",47.256333,-122.467066
1639923282,"2021-12-19 14:14:42",47.256327,-122.467031
1639923643,"2021-12-19 14:20:43",47.256333,-122.467053
1639924005,"2021-12-19 14:26:45",47.256336,-122.467061
1639924367,"2021-12-19 14:32:47",47.25633,-122.467041
1639924730,"2021-12-19 14:38:50",47.256331,-122.467045
1639925092,"2021-12-19 14:44:52",47.256328,-122.467061
1639925333,"2021-12-19 14:48:53",47.256332,-122.467062
1639925852,"2021-12-19 14:57:32",47.256333,-122.467045
1639926474,"2021-12-19 15:07:54",47.256336,-122.467059
1639926962,"2021-12-19 15:16:02",47.256335,-122.467057
1639928808,"2021-12-19 15:46:48",47.256335,-122.467059
1639929082,"2021-12-19 15:51:22",47.255691,-122.465623
1639929253,"2021-12-19 15:54:13",47.256328,-122.467073
1639929452,"2021-12-19 15:57:32",47.256083,-122.466532
1639929544,"2021-12-19 15:59:04",47.256333,-122.467062
1639929938,"2021-12-19 16:05:38",47.256327,-122.467062
1639929998,"2021-12-19 16:06:38",47.255957,-122.467223
1639930028,"2021-12-19 16:07:08",47.256338,-122.467065
1639930059,"2021-12-19 16:07:39",47.256341,-122.466346
1639930095,"2021-12-19 16:08:15",47.256282,-122.466733
1639930126,"2021-12-19 16:08:46",47.256231,-122.467374
1639930153,"2021-12-19 16:09:13",47.256552,-122.467613
1639930172,"2021-12-19 16:09:32",47.256352,-122.467004
1639930263,"2021-12-19 16:11:03",47.255997,-122.467562
1639930289,"2021-12-19 16:11:29",47.256332,-122.467064
1639930386,"2021-12-19 16:13:06",47.256861,-122.466848
1639930432,"2021-12-19 16:13:52",47.256333,-122.467062
1639930596,"2021-12-19 16:16:36",47.25675,-122.466851
1639930664,"2021-12-19 16:17:44",47.256234,-122.467231
1639930716,"2021-12-19 16:18:36",47.256491,-122.466797
1639930832,"2021-12-19 16:20:32",47.256213,-122.467133
1639931271,"2021-12-19 16:27:51",47.256507,-122.466661
1639931297,"2021-12-19 16:28:17",47.256334,-122.46705
1639932666,"2021-12-19 16:51:06",47.256626,-122.466847
1639932902,"2021-12-19 16:55:02",47.256323,-122.466834
1639948468,"2021-12-19 21:14:28",47.256398,-122.467134
1639948679,"2021-12-19 21:17:59",47.256457,-122.466533
1639948686,"2021-12-19 21:18:06",47.256353,-122.466968
1639949125,"2021-12-19 21:25:25",47.256326,-122.467033
1639949401,"2021-12-19 21:30:01",47.256327,-122.467007
1639950003,"2021-12-19 21:40:03",47.256323,-122.467059
1639950533,"2021-12-19 21:48:53",47.256341,-122.467066
1639951002,"2021-12-19 21:56:42",47.256726,-122.467179
1639951008,"2021-12-19 21:56:48",47.256344,-122.467075
1639951024,"2021-12-19 21:57:04",47.25673,-122.467061
1639951055,"2021-12-19 21:57:35",47.256338,-122.467057
1639951467,"2021-12-19 22:04:27",47.256334,-122.467063
1639952197,"2021-12-19 22:16:37",47.256335,-122.467065
1639952389,"2021-12-19 22:19:49",47.255618,-122.466009
1639952480,"2021-12-19 22:21:20",47.256332,-122.467053
1639952496,"2021-12-19 22:21:36",47.256028,-122.466598
1639952844,"2021-12-19 22:27:24",47.256332,-122.467054
1639952869,"2021-12-19 22:27:49",47.255981,-122.466502
1639952924,"2021-12-19 22:28:44",47.255907,-122.466413
1639953101,"2021-12-19 22:31:41",47.256337,-122.467033
1639955017,"2021-12-19 23:03:37",47.256334,-122.46705
1639955323,"2021-12-19 23:08:43",47.256334,-122.467061
1639955641,"2021-12-19 23:14:01",47.25633,-122.467054
1639955943,"2021-12-19 23:19:03",47.256328,-122.467049
1639956244,"2021-12-19 23:24:04",47.256321,-122.467031
1639956255,"2021-12-19 23:24:15",47.256007,-122.466792
1639956264,"2021-12-19 23:24:24",47.256312,-122.467022
1639956286,"2021-12-19 23:24:46",47.255989,-122.466492
1639956316,"2021-12-19 23:25:16",47.256329,-122.467021
1639956391,"2021-12-19 23:26:31",47.256298,-122.467751
1639956474,"2021-12-19 23:27:54",47.256693,-122.467569
1639956480,"2021-12-19 23:28:00",47.256335,-122.467044
1639956486,"2021-12-19 23:28:06",47.256659,-122.467501
1639956534,"2021-12-19 23:28:54",47.25634,-122.467068
1639956567,"2021-12-19 23:29:27",47.256328,-122.46705
1639956835,"2021-12-19 23:33:55",47.256512,-122.468544
1639956866,"2021-12-19 23:34:26",47.256392,-122.46749
1639956896,"2021-12-19 23:34:56",47.256392,-122.46749
1639957149,"2021-12-19 23:39:09",47.25634,-122.467064
1639958121,"2021-12-19 23:55:21",47.256238,-122.466504
1640032561,"2021-12-20 20:36:01",47.256335,-122.467054
1640647976,"2021-12-27 23:32:56",47.256321,-122.467035
1640648582,"2021-12-27 23:43:02",47.25633,-122.466993
1640649251,"2021-12-27 23:54:11",47.256334,-122.467063
1640650142,"2021-12-28 00:09:02",47.256334,-122.467061
1640650233,"2021-12-28 00:10:33",47.255697,-122.467025
1640650240,"2021-12-28 00:10:40",47.256212,-122.466291
1640650353,"2021-12-28 00:12:33",47.25634,-122.467063
1640650383,"2021-12-28 00:13:03",47.255954,-122.467712
1640650413,"2021-12-28 00:13:33",47.256335,-122.467063
1640650955,"2021-12-28 00:22:35",47.256101,-122.46678
1640650998,"2021-12-28 00:23:18",47.256331,-122.467061
1640651680,"2021-12-28 00:34:40",47.256058,-122.467125
1640651755,"2021-12-28 00:35:55",47.256348,-122.466659
1640651838,"2021-12-28 00:37:18",47.256333,-122.467056
1640651888,"2021-12-28 00:38:08",47.256848,-122.466444
1640651922,"2021-12-28 00:38:42",47.256324,-122.467058
1640652071,"2021-12-28 00:41:11",47.256323,-122.466973
1640652688,"2021-12-28 00:51:28",47.256329,-122.467068
1640653172,"2021-12-28 00:59:32",47.256942,-122.466179
1640653216,"2021-12-28 01:00:16",47.256337,-122.467058
1640653276,"2021-12-28 01:01:16",47.256334,-122.467065
1640654121,"2021-12-28 01:15:21",47.256554,-122.466433
1640654152,"2021-12-28 01:15:52",47.256555,-122.466925
1640654206,"2021-12-28 01:16:46",47.256345,-122.467205
1640654238,"2021-12-28 01:17:18",47.25649,-122.466764
1640654651,"2021-12-28 01:24:11",47.256324,-122.467053
1640655324,"2021-12-28 01:35:24",47.256005,-122.466781
1640655372,"2021-12-28 01:36:12",47.256345,-122.467062
1640656100,"2021-12-28 01:48:20",47.256341,-122.467063
1640656487,"2021-12-28 01:54:47",47.25597,-122.466358
1640656516,"2021-12-28 01:55:16",47.256315,-122.46704
1640656543,"2021-12-28 01:55:43",47.255787,-122.46643
1640656575,"2021-12-28 01:56:15",47.256119,-122.466256
1640656667,"2021-12-28 01:57:47",47.255859,-122.466548
1640656697,"2021-12-28 01:58:17",47.256244,-122.466763
1640656733,"2021-12-28 01:58:53",47.256114,-122.466809
1640656773,"2021-12-28 01:59:33",47.256335,-122.46706
1640656824,"2021-12-28 02:00:24",47.256053,-122.466319
1640656883,"2021-12-28 02:01:23",47.25629,-122.466903
1640656922,"2021-12-28 02:02:02",47.256137,-122.46655
1640656991,"2021-12-28 02:03:11",47.256403,-122.466897
1640657560,"2021-12-28 02:12:40",47.25634,-122.467063
